[
  {
    "name": "阿联酋",
    "code": "AE",
    "url": "https://raw.githubusercontent.com/heisiyyds999/clash-conf/refs/heads/master/proxys-b/AE.yaml",
    "timezone": "Asia/Dubai",
    "longitude": 55.4121,
    "latitude": 25.3374
  },
  {
    "name": "阿富汗",
    "code": "AF",
    "url": "https://raw.githubusercontent.com/heisiyyds999/clash-conf/refs/heads/master/proxys-b/AF.yaml",
    "timezone": "Asia/Kabul",
    "longitude": 69.1723,
    "latitude": 34.5281
  },
  {
    "name": "阿尔巴尼亚",
    "code": "AL",
    "url": "https://raw.githubusercontent.com/heisiyyds999/clash-conf/refs/heads/master/proxys-b/AL.yaml",
    "timezone": "Europe/Tirane",
    "longitude": 19.43639,
    "latitude": 42.21361
  },
  {
    "name": "亚美尼亚",
    "code": "AM",
    "url": "https://raw.githubusercontent.com/heisiyyds999/clash-conf/refs/heads/master/proxys-b/AM.yaml",
    "timezone": "Asia/Yerevan",
    "longitude": 44.5136,
    "latitude": 40.1811
  },
  {
    "name": "安哥拉",
    "code": "AO",
    "url": "https://raw.githubusercontent.com/heisiyyds999/clash-conf/refs/heads/master/proxys-b/AO.yaml",
    "timezone": "Africa/Luanda",
    "longitude": 13.2343,
    "latitude": -8.83682
  },
  {
    "name": "阿根廷",
    "code": "AR",
    "url": "https://raw.githubusercontent.com/heisiyyds999/clash-conf/refs/heads/master/proxys-b/AR.yaml",
    "timezone": "America/Argentina/Buenos_Aires",
    "longitude": -59.11478,
    "latitude": -34.5664
  },
  {
    "name": "奥地利",
    "code": "AT",
    "url": "https://raw.githubusercontent.com/heisiyyds999/clash-conf/refs/heads/master/proxys-b/AT.yaml",
    "timezone": "Europe/Vienna",
    "longitude": 16.38233,
    "latitude": 48.16116
  },
  {
    "name": "澳大利亚",
    "code": "AU",
    "url": "https://raw.githubusercontent.com/heisiyyds999/clash-conf/refs/heads/master/proxys-b/AU.yaml",
    "timezone": "Australia/Brisbane",
    "longitude": 153.02809,
    "latitude": -27.46794
  },
  {
    "name": "阿鲁巴",
    "code": "AW",
    "url": "https://raw.githubusercontent.com/heisiyyds999/clash-conf/refs/heads/master/proxys-b/AW.yaml",
    "timezone": "America/Aruba",
    "longitude": -70.027103,
    "latitude": 12.523921
  },
  {
    "name": "阿塞拜疆",
    "code": "AZ",
    "url": "https://raw.githubusercontent.com/heisiyyds999/clash-conf/refs/heads/master/proxys-b/AZ.yaml",
    "timezone": "Asia/Baku",
    "longitude": 48.929,
    "latitude": 39.93778
  },
  {
    "name": "波黑",
    "code": "BA",
    "url": "https://raw.githubusercontent.com/heisiyyds999/clash-conf/refs/heads/master/proxys-b/BA.yaml",
    "timezone": "Europe/Sarajevo",
    "longitude": 18.8101,
    "latitude": 44.8699
  },
  {
    "name": "孟加拉国",
    "code": "BD",
    "url": "https://raw.githubusercontent.com/heisiyyds999/clash-conf/refs/heads/master/proxys-b/BD.yaml",
    "timezone": "Asia/Dhaka",
    "longitude": 90.40744,
    "latitude": 23.7104
  },
  {
    "name": "比利时",
    "code": "BE",
    "url": "https://raw.githubusercontent.com/heisiyyds999/clash-conf/refs/heads/master/proxys-b/BE.yaml",
    "timezone": "Europe/Brussels",
    "longitude": 4.34878,
    "latitude": 50.85045
  },
  {
    "name": "布基纳法索",
    "code": "BF",
    "url": "https://raw.githubusercontent.com/heisiyyds999/clash-conf/refs/heads/master/proxys-b/BF.yaml",
    "timezone": "Africa/Ouagadougou",
    "longitude": -1.5264,
    "latitude": 12.3729
  },
  {
    "name": "保加利亚",
    "code": "BG",
    "url": "https://raw.githubusercontent.com/heisiyyds999/clash-conf/refs/heads/master/proxys-b/BG.yaml",
    "timezone": "Europe/Sofia",
    "longitude": 23.32415,
    "latitude": 42.69751
  },
  {
    "name": "巴林",
    "code": "BH",
    "url": "https://raw.githubusercontent.com/heisiyyds999/clash-conf/refs/heads/master/proxys-b/BH.yaml",
    "timezone": "Asia/Bahrain",
    "longitude": 50.555,
    "latitude": 26.13
  },
  {
    "name": "贝宁",
    "code": "BJ",
    "url": "https://raw.githubusercontent.com/heisiyyds999/clash-conf/refs/heads/master/proxys-b/BJ.yaml",
    "timezone": "Africa/Porto-Novo",
    "longitude": 2.418213,
    "latitude": 6.365501
  },
  {
    "name": "文莱",
    "code": "BN",
    "url": "https://raw.githubusercontent.com/heisiyyds999/clash-conf/refs/heads/master/proxys-b/BN.yaml",
    "timezone": "Asia/Brunei",
    "longitude": 114.942,
    "latitude": 4.89234
  },
  {
    "name": "玻利维亚",
    "code": "BO",
    "url": "https://raw.githubusercontent.com/heisiyyds999/clash-conf/refs/heads/master/proxys-b/BO.yaml",
    "timezone": "America/La_Paz",
    "longitude": -66.1584,
    "latitude": -17.3845
  },
  {
    "name": "巴西",
    "code": "BR",
    "url": "https://raw.githubusercontent.com/heisiyyds999/clash-conf/refs/heads/master/proxys-b/BR.yaml",
    "timezone": "America/Sao_Paulo",
    "longitude": -46.63611,
    "latitude": -23.5475
  },
  {
    "name": "不丹",
    "code": "BT",
    "url": "https://raw.githubusercontent.com/heisiyyds999/clash-conf/refs/heads/master/proxys-b/BT.yaml",
    "timezone": "Asia/Kolkata",
    "longitude": 89.37558,
    "latitude": 26.84766
  },
  {
    "name": "博茨瓦纳",
    "code": "BW",
    "url": "https://raw.githubusercontent.com/heisiyyds999/clash-conf/refs/heads/master/proxys-b/BW.yaml",
    "timezone": "Africa/Gaborone",
    "longitude": 23.41667,
    "latitude": -19.98333
  },
  {
    "name": "白俄罗斯",
    "code": "BY",
    "url": "https://raw.githubusercontent.com/heisiyyds999/clash-conf/refs/heads/master/proxys-b/BY.yaml",
    "timezone": "Europe/Minsk",
    "longitude": 27.56653,
    "latitude": 53.90019
  },
  {
    "name": "加拿大",
    "code": "CA",
    "url": "https://raw.githubusercontent.com/heisiyyds999/clash-conf/refs/heads/master/proxys-b/CA.yaml",
    "timezone": "America/Toronto",
    "longitude": -79.39864,
    "latitude": 43.70643
  },
  {
    "name": "刚果(布)",
    "code": "CG",
    "url": "https://raw.githubusercontent.com/heisiyyds999/clash-conf/refs/heads/master/proxys-b/CG.yaml",
    "timezone": "Africa/Kinshasa",
    "longitude": 15.3136,
    "latitude": -4.32758
  },
  {
    "name": "瑞士",
    "code": "CH",
    "url": "https://raw.githubusercontent.com/heisiyyds999/clash-conf/refs/heads/master/proxys-b/CH.yaml",
    "timezone": "Europe/Zurich",
    "longitude": 8.55,
    "latitude": 47.36667
  },
  {
    "name": "科特迪瓦",
    "code": "CI",
    "url": "https://raw.githubusercontent.com/heisiyyds999/clash-conf/refs/heads/master/proxys-b/CI.yaml",
    "timezone": "Africa/Abidjan",
    "longitude": -4.00167,
    "latitude": 5.35444
  },
  {
    "name": "智利",
    "code": "CL",
    "url": "https://raw.githubusercontent.com/heisiyyds999/clash-conf/refs/heads/master/proxys-b/CL.yaml",
    "timezone": "America/Santiago",
    "longitude": -70.64827,
    "latitude": -33.45694
  },
  {
    "name": "哥伦比亚",
    "code": "CO",
    "url": "https://raw.githubusercontent.com/heisiyyds999/clash-conf/refs/heads/master/proxys-b/CO.yaml",
    "timezone": "America/Bogota",
    "longitude": -74.08175,
    "latitude": 4.60971
  },
  {
    "name": "哥斯达黎加",
    "code": "CR",
    "url": "https://raw.githubusercontent.com/heisiyyds999/clash-conf/refs/heads/master/proxys-b/CR.yaml",
    "timezone": "America/Costa_Rica",
    "longitude": -84.66628,
    "latitude": 9.99197
  },
  {
    "name": "库拉索",
    "code": "CW",
    "url": "https://raw.githubusercontent.com/heisiyyds999/clash-conf/refs/heads/master/proxys-b/CW.yaml",
    "timezone": "America/Curacao",
    "longitude": -68.88641,
    "latitude": 12.12246
  },
  {
    "name": "塞浦路斯",
    "code": "CY",
    "url": "https://raw.githubusercontent.com/heisiyyds999/clash-conf/refs/heads/master/proxys-b/CY.yaml",
    "timezone": "Asia/Nicosia",
    "longitude": 33.62794,
    "latitude": 34.9221
  },
  {
    "name": "捷克共和国",
    "code": "CZ",
    "url": "https://raw.githubusercontent.com/heisiyyds999/clash-conf/refs/heads/master/proxys-b/CZ.yaml",
    "timezone": "Europe/Prague",
    "longitude": 16.97061,
    "latitude": 49.96528
  },
  {
    "name": "德国",
    "code": "DE",
    "url": "https://raw.githubusercontent.com/heisiyyds999/clash-conf/refs/heads/master/proxys-b/DE.yaml",
    "timezone": "Europe/Berlin",
    "longitude": 9.99302,
    "latitude": 53.55073
  },
  {
    "name": "丹麦",
    "code": "DK",
    "url": "https://raw.githubusercontent.com/heisiyyds999/clash-conf/refs/heads/master/proxys-b/DK.yaml",
    "timezone": "Europe/Copenhagen",
    "longitude": 11.35459,
    "latitude": 55.40276
  },
  {
    "name": "多米尼加",
    "code": "DO",
    "url": "https://raw.githubusercontent.com/heisiyyds999/clash-conf/refs/heads/master/proxys-b/DO.yaml",
    "timezone": "America/Santo_Domingo",
    "longitude": -70.33333,
    "latitude": 18.28333
  },
  {
    "name": "阿尔及利亚",
    "code": "DZ",
    "url": "https://raw.githubusercontent.com/heisiyyds999/clash-conf/refs/heads/master/proxys-b/DZ.yaml",
    "timezone": "Africa/Algiers",
    "longitude": 3.08746,
    "latitude": 36.73225
  },
  {
    "name": "厄瓜多尔",
    "code": "EC",
    "url": "https://raw.githubusercontent.com/heisiyyds999/clash-conf/refs/heads/master/proxys-b/EC.yaml",
    "timezone": "America/Guayaquil",
    "longitude": -77.71709,
    "latitude": 0.8124
  },
  {
    "name": "爱沙尼亚",
    "code": "EE",
    "url": "https://raw.githubusercontent.com/heisiyyds999/clash-conf/refs/heads/master/proxys-b/EE.yaml",
    "timezone": "Europe/Tallinn",
    "longitude": 24.75353,
    "latitude": 59.43696
  },
  {
    "name": "埃及",
    "code": "EG",
    "url": "https://raw.githubusercontent.com/heisiyyds999/clash-conf/refs/heads/master/proxys-b/EG.yaml",
    "timezone": "Africa/Cairo",
    "longitude": 31.2497,
    "latitude": 30.0626
  },
  {
    "name": "西班牙",
    "code": "ES",
    "url": "https://raw.githubusercontent.com/heisiyyds999/clash-conf/refs/heads/master/proxys-b/ES.yaml",
    "timezone": "Europe/Madrid",
    "longitude": -3.5179,
    "latitude": 36.75066
  },
  {
    "name": "埃塞俄比亚",
    "code": "ET",
    "url": "https://raw.githubusercontent.com/heisiyyds999/clash-conf/refs/heads/master/proxys-b/ET.yaml",
    "timezone": "Africa/Addis_Ababa",
    "longitude": 38.7519,
    "latitude": 9.02427
  },
  {
    "name": "芬兰",
    "code": "FI",
    "url": "https://raw.githubusercontent.com/heisiyyds999/clash-conf/refs/heads/master/proxys-b/FI.yaml",
    "timezone": "Europe/Helsinki",
    "longitude": 24.86667,
    "latitude": 60.63333
  },
  {
    "name": "斐济群岛",
    "code": "FJ",
    "url": "https://raw.githubusercontent.com/heisiyyds999/clash-conf/refs/heads/master/proxys-b/FJ.yaml",
    "timezone": "Pacific/Fiji",
    "longitude": 177.4159,
    "latitude": -17.7996
  },
  {
    "name": "法国",
    "code": "FR",
    "url": "https://raw.githubusercontent.com/heisiyyds999/clash-conf/refs/heads/master/proxys-b/FR.yaml",
    "timezone": "Europe/Paris",
    "longitude": 1.42079,
    "latitude": 50.04606
  },
  {
    "name": "加蓬",
    "code": "GA",
    "url": "https://raw.githubusercontent.com/heisiyyds999/clash-conf/refs/heads/master/proxys-b/GA.yaml",
    "timezone": "Africa/Libreville",
    "longitude": 8.78454,
    "latitude": -0.716896
  },
  {
    "name": "英国",
    "code": "GB",
    "url": "https://raw.githubusercontent.com/heisiyyds999/clash-conf/refs/heads/master/proxys-b/GB.yaml",
    "timezone": "Europe/London",
    "longitude": -0.12574,
    "latitude": 51.50853
  },
  {
    "name": "格鲁吉亚",
    "code": "GE",
    "url": "https://raw.githubusercontent.com/heisiyyds999/clash-conf/refs/heads/master/proxys-b/GE.yaml",
    "timezone": "Europe/Moscow",
    "longitude": 39.72477,
    "latitude": 43.59699
  },
  {
    "name": "加纳",
    "code": "GH",
    "url": "https://raw.githubusercontent.com/heisiyyds999/clash-conf/refs/heads/master/proxys-b/GH.yaml",
    "timezone": "Africa/Accra",
    "longitude": -0.197431,
    "latitude": 5.55928
  },
  {
    "name": "瓜德罗普",
    "code": "GP",
    "url": "https://raw.githubusercontent.com/heisiyyds999/clash-conf/refs/heads/master/proxys-b/GP.yaml",
    "timezone": "America/Guadeloupe",
    "longitude": -61.50507,
    "latitude": 16.273
  },
  {
    "name": "希腊",
    "code": "GR",
    "url": "https://raw.githubusercontent.com/heisiyyds999/clash-conf/refs/heads/master/proxys-b/GR.yaml",
    "timezone": "Europe/Athens",
    "longitude": 23.7275,
    "latitude": 37.9838
  },
  {
    "name": "危地马拉",
    "code": "GT",
    "url": "https://raw.githubusercontent.com/heisiyyds999/clash-conf/refs/heads/master/proxys-b/GT.yaml",
    "timezone": "America/Guatemala",
    "longitude": -91.18344,
    "latitude": 14.7707
  },
  {
    "name": "圭亚那",
    "code": "GY",
    "url": "https://raw.githubusercontent.com/heisiyyds999/clash-conf/refs/heads/master/proxys-b/GY.yaml",
    "timezone": "America/Guyana",
    "longitude": -58.1551,
    "latitude": 6.80128
  },
  {
    "name": "中国香港",
    "code": "HK",
    "url": "https://raw.githubusercontent.com/heisiyyds999/clash-conf/refs/heads/master/proxys-b/HK.yaml",
    "timezone": "Asia/Hong_Kong",
    "longitude": 114.175,
    "latitude": 22.2783
  },
  {
    "name": "洪都拉斯",
    "code": "HN",
    "url": "https://raw.githubusercontent.com/heisiyyds999/clash-conf/refs/heads/master/proxys-b/HN.yaml",
    "timezone": "America/Tegucigalpa",
    "longitude": -87.20681,
    "latitude": 14.0818
  },
  {
    "name": "克罗地亚",
    "code": "HR",
    "url": "https://raw.githubusercontent.com/heisiyyds999/clash-conf/refs/heads/master/proxys-b/HR.yaml",
    "timezone": "Europe/Zagreb",
    "longitude": 18.08778,
    "latitude": 45.48861
  },
  {
    "name": "匈牙利",
    "code": "HU",
    "url": "https://raw.githubusercontent.com/heisiyyds999/clash-conf/refs/heads/master/proxys-b/HU.yaml",
    "timezone": "Europe/Budapest",
    "longitude": 16.62155,
    "latitude": 47.23088
  },
  {
    "name": "印度尼西亚",
    "code": "ID",
    "url": "https://raw.githubusercontent.com/heisiyyds999/clash-conf/refs/heads/master/proxys-b/ID.yaml",
    "timezone": "Asia/Jakarta",
    "longitude": 111.524,
    "latitude": -7.6298
  },
  {
    "name": "爱尔兰",
    "code": "IE",
    "url": "https://raw.githubusercontent.com/heisiyyds999/clash-conf/refs/heads/master/proxys-b/IE.yaml",
    "timezone": "Europe/Dublin",
    "longitude": -7.04752,
    "latitude": 53.33948
  },
  {
    "name": "以色列",
    "code": "IL",
    "url": "https://raw.githubusercontent.com/heisiyyds999/clash-conf/refs/heads/master/proxys-b/IL.yaml",
    "timezone": "Asia/Jerusalem",
    "longitude": 34.7806,
    "latitude": 32.0809
  },
  {
    "name": "印度",
    "code": "IN",
    "url": "https://raw.githubusercontent.com/heisiyyds999/clash-conf/refs/heads/master/proxys-b/IN.yaml",
    "timezone": "Asia/Kolkata",
    "longitude": 75.78781,
    "latitude": 26.91962
  },
  {
    "name": "伊拉克",
    "code": "IQ",
    "url": "https://raw.githubusercontent.com/heisiyyds999/clash-conf/refs/heads/master/proxys-b/IQ.yaml",
    "timezone": "Asia/Baghdad",
    "longitude": 45.39065,
    "latitude": 34.3482
  },
  {
    "name": "伊朗",
    "code": "IR",
    "url": "https://raw.githubusercontent.com/heisiyyds999/clash-conf/refs/heads/master/proxys-b/IR.yaml",
    "timezone": "Asia/Tehran",
    "longitude": 52.5311,
    "latitude": 29.6103
  },
  {
    "name": "冰岛",
    "code": "IS",
    "url": "https://raw.githubusercontent.com/heisiyyds999/clash-conf/refs/heads/master/proxys-b/IS.yaml",
    "timezone": "Atlantic/Reykjavik",
    "longitude": -21.8988,
    "latitude": 64.143
  },
  {
    "name": "意大利",
    "code": "IT",
    "url": "https://raw.githubusercontent.com/heisiyyds999/clash-conf/refs/heads/master/proxys-b/IT.yaml",
    "timezone": "Europe/Rome",
    "longitude": 16.86982,
    "latitude": 41.12066
  },
  {
    "name": "牙买加",
    "code": "JM",
    "url": "https://raw.githubusercontent.com/heisiyyds999/clash-conf/refs/heads/master/proxys-b/JM.yaml",
    "timezone": "America/Jamaica",
    "longitude": -76.7932,
    "latitude": 18.0028
  },
  {
    "name": "约旦",
    "code": "JO",
    "url": "https://raw.githubusercontent.com/heisiyyds999/clash-conf/refs/heads/master/proxys-b/JO.yaml",
    "timezone": "Asia/Amman",
    "longitude": 35.9457,
    "latitude": 31.9566
  },
  {
    "name": "日本",
    "code": "JP",
    "url": "https://raw.githubusercontent.com/heisiyyds999/clash-conf/refs/heads/master/proxys-b/JP.yaml",
    "timezone": "Asia/Tokyo",
    "longitude": 138.38333,
    "latitude": 34.98333
  },
  {
    "name": "肯尼亚",
    "code": "KE",
    "url": "https://raw.githubusercontent.com/heisiyyds999/clash-conf/refs/heads/master/proxys-b/KE.yaml",
    "timezone": "Africa/Nairobi",
    "longitude": 36.96087,
    "latitude": -1.14665
  },
  {
    "name": "吉尔吉斯斯坦",
    "code": "KG",
    "url": "https://raw.githubusercontent.com/heisiyyds999/clash-conf/refs/heads/master/proxys-b/KG.yaml",
    "timezone": "Asia/Bishkek",
    "longitude": 74.59,
    "latitude": 42.87
  },
  {
    "name": "柬埔寨",
    "code": "KH",
    "url": "https://raw.githubusercontent.com/heisiyyds999/clash-conf/refs/heads/master/proxys-b/KH.yaml",
    "timezone": "Asia/Phnom_Penh",
    "longitude": 104.916,
    "latitude": 11.5625
  },
  {
    "name": "韩国",
    "code": "KR",
    "url": "https://raw.githubusercontent.com/heisiyyds999/clash-conf/refs/heads/master/proxys-b/KR.yaml",
    "timezone": "Asia/Seoul",
    "longitude": 126.9784,
    "latitude": 37.566
  },
  {
    "name": "科威特",
    "code": "KW",
    "url": "https://raw.githubusercontent.com/heisiyyds999/clash-conf/refs/heads/master/proxys-b/KW.yaml",
    "timezone": "Asia/Kuwait",
    "longitude": 48.0286,
    "latitude": 29.3328
  },
  {
    "name": "哈萨克斯坦",
    "code": "KZ",
    "url": "https://raw.githubusercontent.com/heisiyyds999/clash-conf/refs/heads/master/proxys-b/KZ.yaml",
    "timezone": "Asia/Almaty",
    "longitude": 77.2381,
    "latitude": 43.3023
  },
  {
    "name": "老挝",
    "code": "LA",
    "url": "https://raw.githubusercontent.com/heisiyyds999/clash-conf/refs/heads/master/proxys-b/LA.yaml",
    "timezone": "Asia/Vientiane",
    "longitude": 102.11667,
    "latitude": 20.86667
  },
  {
    "name": "黎巴嫩",
    "code": "LB",
    "url": "https://raw.githubusercontent.com/heisiyyds999/clash-conf/refs/heads/master/proxys-b/LB.yaml",
    "timezone": "Asia/Beirut",
    "longitude": 35.5018,
    "latitude": 33.8938
  },
  {
    "name": "圣卢西亚",
    "code": "LC",
    "url": "https://raw.githubusercontent.com/heisiyyds999/clash-conf/refs/heads/master/proxys-b/LC.yaml",
    "timezone": "America/St_Lucia",
    "longitude": -60.95,
    "latitude": 14.06667
  },
  {
    "name": "斯里兰卡",
    "code": "LK",
    "url": "https://raw.githubusercontent.com/heisiyyds999/clash-conf/refs/heads/master/proxys-b/LK.yaml",
    "timezone": "Asia/Colombo",
    "longitude": 80.78286,
    "latitude": 6.97078
  },
  {
    "name": "立陶宛",
    "code": "LT",
    "url": "https://raw.githubusercontent.com/heisiyyds999/clash-conf/refs/heads/master/proxys-b/LT.yaml",
    "timezone": "Europe/Vilnius",
    "longitude": 23.98703,
    "latitude": 54.01573
  },
  {
    "name": "卢森堡",
    "code": "LU",
    "url": "https://raw.githubusercontent.com/heisiyyds999/clash-conf/refs/heads/master/proxys-b/LU.yaml",
    "timezone": "Europe/Luxembourg",
    "longitude": 6.13268,
    "latitude": 49.60982
  },
  {
    "name": "拉脱维亚",
    "code": "LV",
    "url": "https://raw.githubusercontent.com/heisiyyds999/clash-conf/refs/heads/master/proxys-b/LV.yaml",
    "timezone": "Europe/Riga",
    "longitude": 24.10589,
    "latitude": 56.946
  },
  {
    "name": "利比亚",
    "code": "LY",
    "url": "https://raw.githubusercontent.com/heisiyyds999/clash-conf/refs/heads/master/proxys-b/LY.yaml",
    "timezone": "Africa/Tripoli",
    "longitude": 13.1872,
    "latitude": 32.8877
  },
  {
    "name": "摩洛哥",
    "code": "MA",
    "url": "https://raw.githubusercontent.com/heisiyyds999/clash-conf/refs/heads/master/proxys-b/MA.yaml",
    "timezone": "Africa/Casablanca",
    "longitude": -6.5802,
    "latitude": 34.26101
  },
  {
    "name": "摩纳哥",
    "code": "MC",
    "url": "https://raw.githubusercontent.com/heisiyyds999/clash-conf/refs/heads/master/proxys-b/MC.yaml",
    "timezone": "Europe/Paris",
    "longitude": 7.26608,
    "latitude": 43.70313
  },
  {
    "name": "摩尔多瓦",
    "code": "MD",
    "url": "https://raw.githubusercontent.com/heisiyyds999/clash-conf/refs/heads/master/proxys-b/MD.yaml",
    "timezone": "Europe/Chisinau",
    "longitude": 28.85938,
    "latitude": 47.00902
  },
  {
    "name": "黑山",
    "code": "ME",
    "url": "https://raw.githubusercontent.com/heisiyyds999/clash-conf/refs/heads/master/proxys-b/ME.yaml",
    "timezone": "Europe/Podgorica",
    "longitude": 18.8393,
    "latitude": 42.2938
  },
  {
    "name": "马达加斯加",
    "code": "MG",
    "url": "https://raw.githubusercontent.com/heisiyyds999/clash-conf/refs/heads/master/proxys-b/MG.yaml",
    "timezone": "Indian/Antananarivo",
    "longitude": 47.536215,
    "latitude": -18.913536
  },
  {
    "name": "马其顿",
    "code": "MK",
    "url": "https://raw.githubusercontent.com/heisiyyds999/clash-conf/refs/heads/master/proxys-b/MK.yaml",
    "timezone": "Europe/Skopje",
    "longitude": 21.71444,
    "latitude": 42.13222
  },
  {
    "name": "马里",
    "code": "ML",
    "url": "https://raw.githubusercontent.com/heisiyyds999/clash-conf/refs/heads/master/proxys-b/ML.yaml",
    "timezone": "Africa/Bamako",
    "longitude": -7.97522,
    "latitude": 12.6091
  },
  {
    "name": "缅甸",
    "code": "MM",
    "url": "https://raw.githubusercontent.com/heisiyyds999/clash-conf/refs/heads/master/proxys-b/MM.yaml",
    "timezone": "Asia/Yangon",
    "longitude": 96.1561,
    "latitude": 16.8053
  },
  {
    "name": "蒙古国",
    "code": "MN",
    "url": "https://raw.githubusercontent.com/heisiyyds999/clash-conf/refs/heads/master/proxys-b/MN.yaml",
    "timezone": "Asia/Ulaanbaatar",
    "longitude": 106.883,
    "latitude": 47.9077
  },
  {
    "name": "中国澳门",
    "code": "MO",
    "url": "https://raw.githubusercontent.com/heisiyyds999/clash-conf/refs/heads/master/proxys-b/MO.yaml",
    "timezone": "Asia/Shanghai",
    "longitude": 113.56778,
    "latitude": 22.27694
  },
  {
    "name": "马耳他",
    "code": "MT",
    "url": "https://raw.githubusercontent.com/heisiyyds999/clash-conf/refs/heads/master/proxys-b/MT.yaml",
    "timezone": "Europe/Malta",
    "longitude": 14.41561,
    "latitude": 35.95064
  },
  {
    "name": "毛里求斯",
    "code": "MU",
    "url": "https://raw.githubusercontent.com/heisiyyds999/clash-conf/refs/heads/master/proxys-b/MU.yaml",
    "timezone": "Indian/Mauritius",
    "longitude": 57.5007,
    "latitude": -20.162
  },
  {
    "name": "马尔代夫",
    "code": "MV",
    "url": "https://raw.githubusercontent.com/heisiyyds999/clash-conf/refs/heads/master/proxys-b/MV.yaml",
    "timezone": "Indian/Maldives",
    "longitude": 73.50257,
    "latitude": 1.83243
  },
  {
    "name": "墨西哥",
    "code": "MX",
    "url": "https://raw.githubusercontent.com/heisiyyds999/clash-conf/refs/heads/master/proxys-b/MX.yaml",
    "timezone": "America/Tijuana",
    "longitude": -116.60071,
    "latitude": 31.87149
  },
  {
    "name": "马来西亚",
    "code": "MY",
    "url": "https://raw.githubusercontent.com/heisiyyds999/clash-conf/refs/heads/master/proxys-b/MY.yaml",
    "timezone": "Asia/Kuala_Lumpur",
    "longitude": 101.68653,
    "latitude": 3.1412
  },
  {
    "name": "莫桑比克",
    "code": "MZ",
    "url": "https://raw.githubusercontent.com/heisiyyds999/clash-conf/refs/heads/master/proxys-b/MZ.yaml",
    "timezone": "Africa/Maputo",
    "longitude": 32.5832,
    "latitude": -25.9655
  },
  {
    "name": "纳米比亚",
    "code": "NA",
    "url": "https://raw.githubusercontent.com/heisiyyds999/clash-conf/refs/heads/master/proxys-b/NA.yaml",
    "timezone": "Africa/Windhoek",
    "longitude": 17.0842,
    "latitude": -22.5649
  },
  {
    "name": "尼日利亚",
    "code": "NG",
    "url": "https://raw.githubusercontent.com/heisiyyds999/clash-conf/refs/heads/master/proxys-b/NG.yaml",
    "timezone": "Africa/Lagos",
    "longitude": 8.51672,
    "latitude": 12.0001
  },
  {
    "name": "荷兰",
    "code": "NL",
    "url": "https://raw.githubusercontent.com/heisiyyds999/clash-conf/refs/heads/master/proxys-b/NL.yaml",
    "timezone": "Europe/Amsterdam",
    "longitude": 5.12222,
    "latitude": 52.09083
  },
  {
    "name": "挪威",
    "code": "NO",
    "url": "https://raw.githubusercontent.com/heisiyyds999/clash-conf/refs/heads/master/proxys-b/NO.yaml",
    "timezone": "Europe/Oslo",
    "longitude": 10.74609,
    "latitude": 59.91273
  },
  {
    "name": "尼泊尔",
    "code": "NP",
    "url": "https://raw.githubusercontent.com/heisiyyds999/clash-conf/refs/heads/master/proxys-b/NP.yaml",
    "timezone": "Asia/Kathmandu",
    "longitude": 85.3206,
    "latitude": 27.7017
  },
  {
    "name": "新西兰",
    "code": "NZ",
    "url": "https://raw.githubusercontent.com/heisiyyds999/clash-conf/refs/heads/master/proxys-b/NZ.yaml",
    "timezone": "Pacific/Auckland",
    "longitude": 175.28333,
    "latitude": -37.78333
  },
  {
    "name": "阿曼",
    "code": "OM",
    "url": "https://raw.githubusercontent.com/heisiyyds999/clash-conf/refs/heads/master/proxys-b/OM.yaml",
    "timezone": "Asia/Muscat",
    "longitude": 58.4078,
    "latitude": 23.5841
  },
  {
    "name": "巴拿马",
    "code": "PA",
    "url": "https://raw.githubusercontent.com/heisiyyds999/clash-conf/refs/heads/master/proxys-b/PA.yaml",
    "timezone": "America/Panama",
    "longitude": -79.51973,
    "latitude": 8.9936
  },
  {
    "name": "秘鲁",
    "code": "PE",
    "url": "https://raw.githubusercontent.com/heisiyyds999/clash-conf/refs/heads/master/proxys-b/PE.yaml",
    "timezone": "America/Lima",
    "longitude": -78.59373,
    "latitude": -9.07508
  },
  {
    "name": "菲律宾",
    "code": "PH",
    "url": "https://raw.githubusercontent.com/heisiyyds999/clash-conf/refs/heads/master/proxys-b/PH.yaml",
    "timezone": "Asia/Manila",
    "longitude": 121.72285,
    "latitude": 17.61577
  },
  {
    "name": "巴基斯坦",
    "code": "PK",
    "url": "https://raw.githubusercontent.com/heisiyyds999/clash-conf/refs/heads/master/proxys-b/PK.yaml",
    "timezone": "Asia/Karachi",
    "longitude": 67.0104,
    "latitude": 24.8608
  },
  {
    "name": "波兰",
    "code": "PL",
    "url": "https://raw.githubusercontent.com/heisiyyds999/clash-conf/refs/heads/master/proxys-b/PL.yaml",
    "timezone": "Europe/Warsaw",
    "longitude": 21.01178,
    "latitude": 52.22977
  },
  {
    "name": "波多黎各",
    "code": "PR",
    "url": "https://raw.githubusercontent.com/heisiyyds999/clash-conf/refs/heads/master/proxys-b/PR.yaml",
    "timezone": "America/Puerto_Rico",
    "longitude": -66.8499,
    "latitude": 18.03496
  },
  {
    "name": "巴勒斯坦",
    "code": "PS",
    "url": "https://raw.githubusercontent.com/heisiyyds999/clash-conf/refs/heads/master/proxys-b/PS.yaml",
    "timezone": "Asia/Hebron",
    "longitude": 35.0938,
    "latitude": 31.5294
  },
  {
    "name": "葡萄牙",
    "code": "PT",
    "url": "https://raw.githubusercontent.com/heisiyyds999/clash-conf/refs/heads/master/proxys-b/PT.yaml",
    "timezone": "Europe/Lisbon",
    "longitude": -9.1498,
    "latitude": 38.72509
  },
  {
    "name": "帕劳",
    "code": "PW",
    "url": "https://raw.githubusercontent.com/heisiyyds999/clash-conf/refs/heads/master/proxys-b/PW.yaml",
    "timezone": "",
    "longitude": "",
    "latitude": ""
  },
  {
    "name": "巴拉圭",
    "code": "PY",
    "url": "https://raw.githubusercontent.com/heisiyyds999/clash-conf/refs/heads/master/proxys-b/PY.yaml",
    "timezone": "America/Asuncion",
    "longitude": -57.647,
    "latitude": -25.2865
  },
  {
    "name": "卡塔尔",
    "code": "QA",
    "url": "https://raw.githubusercontent.com/heisiyyds999/clash-conf/refs/heads/master/proxys-b/QA.yaml",
    "timezone": "Asia/Qatar",
    "longitude": 51.531,
    "latitude": 25.2854
  },
  {
    "name": "留尼汪",
    "code": "RE",
    "url": "https://raw.githubusercontent.com/heisiyyds999/clash-conf/refs/heads/master/proxys-b/RE.yaml",
    "timezone": "Indian/Reunion",
    "longitude": 55.4504,
    "latitude": -20.88231
  },
  {
    "name": "罗马尼亚",
    "code": "RO",
    "url": "https://raw.githubusercontent.com/heisiyyds999/clash-conf/refs/heads/master/proxys-b/RO.yaml",
    "timezone": "Europe/Bucharest",
    "longitude": 21.22571,
    "latitude": 45.75372
  },
  {
    "name": "塞尔维亚",
    "code": "RS",
    "url": "https://raw.githubusercontent.com/heisiyyds999/clash-conf/refs/heads/master/proxys-b/RS.yaml",
    "timezone": "Europe/Belgrade",
    "longitude": 21.58806,
    "latitude": 43.23417
  },
  {
    "name": "俄罗斯",
    "code": "RU",
    "url": "https://raw.githubusercontent.com/heisiyyds999/clash-conf/refs/heads/master/proxys-b/RU.yaml",
    "timezone": "Europe/Moscow",
    "longitude": 39.72328,
    "latitude": 47.23135
  },
  {
    "name": "卢旺达",
    "code": "RW",
    "url": "https://raw.githubusercontent.com/heisiyyds999/clash-conf/refs/heads/master/proxys-b/RW.yaml",
    "timezone": "Africa/Kigali",
    "longitude": 30.0588,
    "latitude": -1.94995
  },
  {
    "name": "沙特阿拉伯",
    "code": "SA",
    "url": "https://raw.githubusercontent.com/heisiyyds999/clash-conf/refs/heads/master/proxys-b/SA.yaml",
    "timezone": "Asia/Riyadh",
    "longitude": 42.7333,
    "latitude": 18.3
  },
  {
    "name": "苏丹",
    "code": "SD",
    "url": "https://raw.githubusercontent.com/heisiyyds999/clash-conf/refs/heads/master/proxys-b/SD.yaml",
    "timezone": "Africa/Khartoum",
    "longitude": 32.53247,
    "latitude": 15.55174
  },
  {
    "name": "瑞典",
    "code": "SE",
    "url": "https://raw.githubusercontent.com/heisiyyds999/clash-conf/refs/heads/master/proxys-b/SE.yaml",
    "timezone": "Europe/Stockholm",
    "longitude": 13.00073,
    "latitude": 55.60587
  },
  {
    "name": "新加坡",
    "code": "SG",
    "url": "https://raw.githubusercontent.com/heisiyyds999/clash-conf/refs/heads/master/proxys-b/SG.yaml",
    "timezone": "Asia/Singapore",
    "longitude": 103.850281,
    "latitude": 1.289987
  },
  {
    "name": "斯洛文尼亚",
    "code": "SI",
    "url": "https://raw.githubusercontent.com/heisiyyds999/clash-conf/refs/heads/master/proxys-b/SI.yaml",
    "timezone": "Europe/Ljubljana",
    "longitude": 14.5051,
    "latitude": 46.0511
  },
  {
    "name": "斯洛伐克",
    "code": "SK",
    "url": "https://raw.githubusercontent.com/heisiyyds999/clash-conf/refs/heads/master/proxys-b/SK.yaml",
    "timezone": "Europe/Bratislava",
    "longitude": 18.6275,
    "latitude": 48.77446
  },
  {
    "name": "塞内加尔",
    "code": "SN",
    "url": "https://raw.githubusercontent.com/heisiyyds999/clash-conf/refs/heads/master/proxys-b/SN.yaml",
    "timezone": "Africa/Dakar",
    "longitude": -16.926,
    "latitude": 14.7894
  },
  {
    "name": "南苏丹",
    "code": "SS",
    "url": "https://raw.githubusercontent.com/heisiyyds999/clash-conf/refs/heads/master/proxys-b/SS.yaml",
    "timezone": "Africa/Juba",
    "longitude": 31.5825,
    "latitude": 4.85386
  },
  {
    "name": "萨尔瓦多",
    "code": "SV",
    "url": "https://raw.githubusercontent.com/heisiyyds999/clash-conf/refs/heads/master/proxys-b/SV.yaml",
    "timezone": "America/El_Salvador",
    "longitude": -89.1872,
    "latitude": 13.6894
  },
  {
    "name": "叙利亚",
    "code": "SY",
    "url": "https://raw.githubusercontent.com/heisiyyds999/clash-conf/refs/heads/master/proxys-b/SY.yaml",
    "timezone": "Asia/Damascus",
    "longitude": 36.2912,
    "latitude": 33.510485
  },
  {
    "name": "多哥",
    "code": "TG",
    "url": "https://raw.githubusercontent.com/heisiyyds999/clash-conf/refs/heads/master/proxys-b/TG.yaml",
    "timezone": "Africa/Lome",
    "longitude": 1.21965,
    "latitude": 6.12956
  },
  {
    "name": "泰国",
    "code": "TH",
    "url": "https://raw.githubusercontent.com/heisiyyds999/clash-conf/refs/heads/master/proxys-b/TH.yaml",
    "timezone": "Asia/Bangkok",
    "longitude": 98.98468,
    "latitude": 18.79038
  },
  {
    "name": "塔吉克斯坦",
    "code": "TJ",
    "url": "https://raw.githubusercontent.com/heisiyyds999/clash-conf/refs/heads/master/proxys-b/TJ.yaml",
    "timezone": "Asia/Dushanbe",
    "longitude": 68.78,
    "latitude": 38.5367
  },
  {
    "name": "东帝汶",
    "code": "TL",
    "url": "https://raw.githubusercontent.com/heisiyyds999/clash-conf/refs/heads/master/proxys-b/TL.yaml",
    "timezone": "",
    "longitude": "",
    "latitude": ""
  },
  {
    "name": "土库曼斯坦",
    "code": "TM",
    "url": "https://raw.githubusercontent.com/heisiyyds999/clash-conf/refs/heads/master/proxys-b/TM.yaml",
    "timezone": "Asia/Ashgabat",
    "longitude": 59.9666,
    "latitude": 41.8363
  },
  {
    "name": "突尼斯",
    "code": "TN",
    "url": "https://raw.githubusercontent.com/heisiyyds999/clash-conf/refs/heads/master/proxys-b/TN.yaml",
    "timezone": "Africa/Tunis",
    "longitude": 8.70486,
    "latitude": 36.17424
  },
  {
    "name": "土耳其",
    "code": "TR",
    "url": "https://raw.githubusercontent.com/heisiyyds999/clash-conf/refs/heads/master/proxys-b/TR.yaml",
    "timezone": "Europe/Istanbul",
    "longitude": 28.94966,
    "latitude": 41.01384
  },
  {
    "name": "特立尼达和多巴哥",
    "code": "TT",
    "url": "https://raw.githubusercontent.com/heisiyyds999/clash-conf/refs/heads/master/proxys-b/TT.yaml",
    "timezone": "America/Port_of_Spain",
    "longitude": -61.41667,
    "latitude": 10.51667
  },
  {
    "name": "中国台湾",
    "code": "TW",
    "url": "https://raw.githubusercontent.com/heisiyyds999/clash-conf/refs/heads/master/proxys-b/TW.yaml",
    "timezone": "Asia/Taipei",
    "longitude": 121.526,
    "latitude": 25.0531
  },
  {
    "name": "乌克兰",
    "code": "UA",
    "url": "https://raw.githubusercontent.com/heisiyyds999/clash-conf/refs/heads/master/proxys-b/UA.yaml",
    "timezone": "Europe/Kyiv",
    "longitude": 30.63333,
    "latitude": 50.43333
  },
  {
    "name": "乌干达",
    "code": "UG",
    "url": "https://raw.githubusercontent.com/heisiyyds999/clash-conf/refs/heads/master/proxys-b/UG.yaml",
    "timezone": "Africa/Kampala",
    "longitude": 32.5816,
    "latitude": 0.315169
  },
  {
    "name": "美国",
    "code": "US",
    "url": "https://raw.githubusercontent.com/heisiyyds999/clash-conf/refs/heads/master/proxys-b/US.yaml",
    "timezone": "America/New_York",
    "longitude": -80.64952,
    "latitude": 41.09978
  },
  {
    "name": "乌拉圭",
    "code": "UY",
    "url": "https://raw.githubusercontent.com/heisiyyds999/clash-conf/refs/heads/master/proxys-b/UY.yaml",
    "timezone": "America/Montevideo",
    "longitude": -56.18816,
    "latitude": -34.90328
  },
  {
    "name": "乌兹别克斯坦",
    "code": "UZ",
    "url": "https://raw.githubusercontent.com/heisiyyds999/clash-conf/refs/heads/master/proxys-b/UZ.yaml",
    "timezone": "Asia/Tashkent",
    "longitude": 69.2163,
    "latitude": 41.2646
  },
  {
    "name": "委内瑞拉",
    "code": "VE",
    "url": "https://raw.githubusercontent.com/heisiyyds999/clash-conf/refs/heads/master/proxys-b/VE.yaml",
    "timezone": "America/Caracas",
    "longitude": -69.6762,
    "latitude": 11.4139
  },
  {
    "name": "越南",
    "code": "VN",
    "url": "https://raw.githubusercontent.com/heisiyyds999/clash-conf/refs/heads/master/proxys-b/VN.yaml",
    "timezone": "Asia/Ho_Chi_Minh",
    "longitude": 106.63,
    "latitude": 10.8231
  },
  {
    "name": "也门",
    "code": "YE",
    "url": "https://raw.githubusercontent.com/heisiyyds999/clash-conf/refs/heads/master/proxys-b/YE.yaml",
    "timezone": "Asia/Aden",
    "longitude": 47.5612,
    "latitude": 14.27042
  },
  {
    "name": "南非",
    "code": "ZA",
    "url": "https://raw.githubusercontent.com/heisiyyds999/clash-conf/refs/heads/master/proxys-b/ZA.yaml",
    "timezone": "Africa/Johannesburg",
    "longitude": 28.04355,
    "latitude": -26.20225
  },
  {
    "name": "津巴布韦",
    "code": "ZW",
    "url": "https://raw.githubusercontent.com/heisiyyds999/clash-conf/refs/heads/master/proxys-b/ZW.yaml",
    "timezone": "Africa/Harare",
    "longitude": 28.58333,
    "latitude": -20.15
  }
]