[
  {
    "name": "安道尔公国",
    "code": "ad",
    "url": "https://raw.githubusercontent.com/heisiyyds999/clash-conf/refs/heads/master/proxys/ad.yaml",
    "timezone": "",
    "longitude": "",
    "latitude": ""
  },
  {
    "name": "阿联酋",
    "code": "ae",
    "url": "https://raw.githubusercontent.com/heisiyyds999/clash-conf/refs/heads/master/proxys/ae.yaml",
    "timezone": "Asia/Dubai",
    "longitude": 55.4121,
    "latitude": 25.3374
  },
  {
    "name": "阿富汗",
    "code": "af",
    "url": "https://raw.githubusercontent.com/heisiyyds999/clash-conf/refs/heads/master/proxys/af.yaml",
    "timezone": "Asia/Kabul",
    "longitude": 69.1723,
    "latitude": 34.5281
  },
  {
    "name": "安提瓜和巴布达",
    "code": "ag",
    "url": "https://raw.githubusercontent.com/heisiyyds999/clash-conf/refs/heads/master/proxys/ag.yaml",
    "timezone": "",
    "longitude": "",
    "latitude": ""
  },
  {
    "name": "阿尔巴尼亚",
    "code": "al",
    "url": "https://raw.githubusercontent.com/heisiyyds999/clash-conf/refs/heads/master/proxys/al.yaml",
    "timezone": "Europe/Tirane",
    "longitude": 19.55694,
    "latitude": 41.18556
  },
  {
    "name": "亚美尼亚",
    "code": "am",
    "url": "https://raw.githubusercontent.com/heisiyyds999/clash-conf/refs/heads/master/proxys/am.yaml",
    "timezone": "Asia/Yerevan",
    "longitude": 44.5136,
    "latitude": 40.1811
  },
  {
    "name": "安哥拉",
    "code": "ao",
    "url": "https://raw.githubusercontent.com/heisiyyds999/clash-conf/refs/heads/master/proxys/ao.yaml",
    "timezone": "Africa/Luanda",
    "longitude": 13.2343,
    "latitude": -8.83682
  },
  {
    "name": "阿根廷",
    "code": "ar",
    "url": "https://raw.githubusercontent.com/heisiyyds999/clash-conf/refs/heads/master/proxys/ar.yaml",
    "timezone": "America/Argentina/Cordoba",
    "longitude": -60.70868,
    "latitude": -31.64881
  },
  {
    "name": "美属萨摩亚",
    "code": "as",
    "url": "https://raw.githubusercontent.com/heisiyyds999/clash-conf/refs/heads/master/proxys/as.yaml",
    "timezone": "",
    "longitude": "",
    "latitude": ""
  },
  {
    "name": "奥地利",
    "code": "at",
    "url": "https://raw.githubusercontent.com/heisiyyds999/clash-conf/refs/heads/master/proxys/at.yaml",
    "timezone": "Europe/Vienna",
    "longitude": 15.45,
    "latitude": 47.06667
  },
  {
    "name": "澳大利亚",
    "code": "au",
    "url": "https://raw.githubusercontent.com/heisiyyds999/clash-conf/refs/heads/master/proxys/au.yaml",
    "timezone": "Australia/Sydney",
    "longitude": 151.20732,
    "latitude": -33.86785
  },
  {
    "name": "阿鲁巴",
    "code": "aw",
    "url": "https://raw.githubusercontent.com/heisiyyds999/clash-conf/refs/heads/master/proxys/aw.yaml",
    "timezone": "",
    "longitude": "",
    "latitude": ""
  },
  {
    "name": "阿塞拜疆",
    "code": "az",
    "url": "https://raw.githubusercontent.com/heisiyyds999/clash-conf/refs/heads/master/proxys/az.yaml",
    "timezone": "Asia/Baku",
    "longitude": 47.12619,
    "latitude": 40.37577
  },
  {
    "name": "波黑",
    "code": "ba",
    "url": "https://raw.githubusercontent.com/heisiyyds999/clash-conf/refs/heads/master/proxys/ba.yaml",
    "timezone": "Europe/Sarajevo",
    "longitude": 19.09028,
    "latitude": 44.17111
  },
  {
    "name": "巴巴多斯",
    "code": "bb",
    "url": "https://raw.githubusercontent.com/heisiyyds999/clash-conf/refs/heads/master/proxys/bb.yaml",
    "timezone": "America/Barbados",
    "longitude": -59.6202,
    "latitude": 13.1073
  },
  {
    "name": "孟加拉国",
    "code": "bd",
    "url": "https://raw.githubusercontent.com/heisiyyds999/clash-conf/refs/heads/master/proxys/bd.yaml",
    "timezone": "Asia/Dhaka",
    "longitude": 89.2372,
    "latitude": 24.00644
  },
  {
    "name": "比利时",
    "code": "be",
    "url": "https://raw.githubusercontent.com/heisiyyds999/clash-conf/refs/heads/master/proxys/be.yaml",
    "timezone": "Europe/Brussels",
    "longitude": 3.71667,
    "latitude": 51.05
  },
  {
    "name": "布基纳法索",
    "code": "bf",
    "url": "https://raw.githubusercontent.com/heisiyyds999/clash-conf/refs/heads/master/proxys/bf.yaml",
    "timezone": "Africa/Ouagadougou",
    "longitude": -1.5264,
    "latitude": 12.3729
  },
  {
    "name": "保加利亚",
    "code": "bg",
    "url": "https://raw.githubusercontent.com/heisiyyds999/clash-conf/refs/heads/master/proxys/bg.yaml",
    "timezone": "Europe/Sofia",
    "longitude": 22.96553,
    "latitude": 42.54565
  },
  {
    "name": "巴林",
    "code": "bh",
    "url": "https://raw.githubusercontent.com/heisiyyds999/clash-conf/refs/heads/master/proxys/bh.yaml",
    "timezone": "Asia/Bahrain",
    "longitude": 50.555,
    "latitude": 26.13
  },
  {
    "name": "贝宁",
    "code": "bj",
    "url": "https://raw.githubusercontent.com/heisiyyds999/clash-conf/refs/heads/master/proxys/bj.yaml",
    "timezone": "Africa/Porto-Novo",
    "longitude": 2.60359,
    "latitude": 6.49646
  },
  {
    "name": "百慕大",
    "code": "bm",
    "url": "https://raw.githubusercontent.com/heisiyyds999/clash-conf/refs/heads/master/proxys/bm.yaml",
    "timezone": "Atlantic/Bermuda",
    "longitude": -64.79204,
    "latitude": 32.30019
  },
  {
    "name": "文莱",
    "code": "bn",
    "url": "https://raw.githubusercontent.com/heisiyyds999/clash-conf/refs/heads/master/proxys/bn.yaml",
    "timezone": "Asia/Brunei",
    "longitude": 114.942,
    "latitude": 4.89234
  },
  {
    "name": "玻利维亚",
    "code": "bo",
    "url": "https://raw.githubusercontent.com/heisiyyds999/clash-conf/refs/heads/master/proxys/bo.yaml",
    "timezone": "America/La_Paz",
    "longitude": -68.15,
    "latitude": -16.5
  },
  {
    "name": "巴西",
    "code": "br",
    "url": "https://raw.githubusercontent.com/heisiyyds999/clash-conf/refs/heads/master/proxys/br.yaml",
    "timezone": "America/Sao_Paulo",
    "longitude": -51.23019,
    "latitude": -30.03283
  },
  {
    "name": "巴哈马",
    "code": "bs",
    "url": "https://raw.githubusercontent.com/heisiyyds999/clash-conf/refs/heads/master/proxys/bs.yaml",
    "timezone": "America/Nassau",
    "longitude": -77.3431,
    "latitude": 25.0582
  },
  {
    "name": "不丹",
    "code": "bt",
    "url": "https://raw.githubusercontent.com/heisiyyds999/clash-conf/refs/heads/master/proxys/bt.yaml",
    "timezone": "Asia/Thimphu",
    "longitude": 89.6386,
    "latitude": 27.4716
  },
  {
    "name": "博茨瓦纳",
    "code": "bw",
    "url": "https://raw.githubusercontent.com/heisiyyds999/clash-conf/refs/heads/master/proxys/bw.yaml",
    "timezone": "Africa/Gaborone",
    "longitude": 25.908583,
    "latitude": -24.654573
  },
  {
    "name": "白俄罗斯",
    "code": "by",
    "url": "https://raw.githubusercontent.com/heisiyyds999/clash-conf/refs/heads/master/proxys/by.yaml",
    "timezone": "Europe/Minsk",
    "longitude": 27.56653,
    "latitude": 53.90019
  },
  {
    "name": "伯利兹",
    "code": "bz",
    "url": "https://raw.githubusercontent.com/heisiyyds999/clash-conf/refs/heads/master/proxys/bz.yaml",
    "timezone": "",
    "longitude": "",
    "latitude": ""
  },
  {
    "name": "加拿大",
    "code": "ca",
    "url": "https://raw.githubusercontent.com/heisiyyds999/clash-conf/refs/heads/master/proxys/ca.yaml",
    "timezone": "America/Toronto",
    "longitude": -79.84963,
    "latitude": 43.25011
  },
  {
    "name": "刚果金",
    "code": "cd",
    "url": "https://raw.githubusercontent.com/heisiyyds999/clash-conf/refs/heads/master/proxys/cd.yaml",
    "timezone": "Africa/Lubumbashi",
    "longitude": 27.4834,
    "latitude": -11.663
  },
  {
    "name": "刚果(布)",
    "code": "cg",
    "url": "https://raw.githubusercontent.com/heisiyyds999/clash-conf/refs/heads/master/proxys/cg.yaml",
    "timezone": "Africa/Kinshasa",
    "longitude": 15.3136,
    "latitude": -4.32758
  },
  {
    "name": "瑞士",
    "code": "ch",
    "url": "https://raw.githubusercontent.com/heisiyyds999/clash-conf/refs/heads/master/proxys/ch.yaml",
    "timezone": "Europe/Zurich",
    "longitude": 8.55,
    "latitude": 47.36667
  },
  {
    "name": "科特迪瓦",
    "code": "ci",
    "url": "https://raw.githubusercontent.com/heisiyyds999/clash-conf/refs/heads/master/proxys/ci.yaml",
    "timezone": "Africa/Abidjan",
    "longitude": -4.00167,
    "latitude": 5.35444
  },
  {
    "name": "智利",
    "code": "cl",
    "url": "https://raw.githubusercontent.com/heisiyyds999/clash-conf/refs/heads/master/proxys/cl.yaml",
    "timezone": "America/Santiago",
    "longitude": -73.11684,
    "latitude": -36.72494
  },
  {
    "name": "喀麦隆",
    "code": "cm",
    "url": "https://raw.githubusercontent.com/heisiyyds999/clash-conf/refs/heads/master/proxys/cm.yaml",
    "timezone": "Africa/Douala",
    "longitude": 11.51663,
    "latitude": 3.867017
  },
  {
    "name": "哥伦比亚",
    "code": "co",
    "url": "https://raw.githubusercontent.com/heisiyyds999/clash-conf/refs/heads/master/proxys/co.yaml",
    "timezone": "America/Bogota",
    "longitude": -75.57151,
    "latitude": 6.245
  },
  {
    "name": "哥斯达黎加",
    "code": "cr",
    "url": "https://raw.githubusercontent.com/heisiyyds999/clash-conf/refs/heads/master/proxys/cr.yaml",
    "timezone": "America/Costa_Rica",
    "longitude": -84.08489,
    "latitude": 9.93388
  },
  {
    "name": "佛得角共和国",
    "code": "cv",
    "url": "https://raw.githubusercontent.com/heisiyyds999/clash-conf/refs/heads/master/proxys/cv.yaml",
    "timezone": "Atlantic/Cape_Verde",
    "longitude": -23.5133,
    "latitude": 14.9331
  },
  {
    "name": "库拉索",
    "code": "cw",
    "url": "https://raw.githubusercontent.com/heisiyyds999/clash-conf/refs/heads/master/proxys/cw.yaml",
    "timezone": "America/Curacao",
    "longitude": -68.88641,
    "latitude": 12.12246
  },
  {
    "name": "塞浦路斯",
    "code": "cy",
    "url": "https://raw.githubusercontent.com/heisiyyds999/clash-conf/refs/heads/master/proxys/cy.yaml",
    "timezone": "Asia/Nicosia",
    "longitude": 33.35397,
    "latitude": 35.17284
  },
  {
    "name": "捷克共和国",
    "code": "cz",
    "url": "https://raw.githubusercontent.com/heisiyyds999/clash-conf/refs/heads/master/proxys/cz.yaml",
    "timezone": "Europe/Prague",
    "longitude": 15.9127,
    "latitude": 50.56101
  },
  {
    "name": "德国",
    "code": "de",
    "url": "https://raw.githubusercontent.com/heisiyyds999/clash-conf/refs/heads/master/proxys/de.yaml",
    "timezone": "Europe/Berlin",
    "longitude": 7.77161,
    "latitude": 49.443
  },
  {
    "name": "吉布提国家",
    "code": "dj",
    "url": "https://raw.githubusercontent.com/heisiyyds999/clash-conf/refs/heads/master/proxys/dj.yaml",
    "timezone": "",
    "longitude": "",
    "latitude": ""
  },
  {
    "name": "丹麦",
    "code": "dk",
    "url": "https://raw.githubusercontent.com/heisiyyds999/clash-conf/refs/heads/master/proxys/dk.yaml",
    "timezone": "Europe/Copenhagen",
    "longitude": 12.56553,
    "latitude": 55.67594
  },
  {
    "name": "多米尼加共和国",
    "code": "dm",
    "url": "https://raw.githubusercontent.com/heisiyyds999/clash-conf/refs/heads/master/proxys/dm.yaml",
    "timezone": "",
    "longitude": "",
    "latitude": ""
  },
  {
    "name": "多米尼加",
    "code": "do",
    "url": "https://raw.githubusercontent.com/heisiyyds999/clash-conf/refs/heads/master/proxys/do.yaml",
    "timezone": "America/Santo_Domingo",
    "longitude": -69.8923,
    "latitude": 18.4719
  },
  {
    "name": "阿尔及利亚",
    "code": "dz",
    "url": "https://raw.githubusercontent.com/heisiyyds999/clash-conf/refs/heads/master/proxys/dz.yaml",
    "timezone": "Africa/Algiers",
    "longitude": 4.53494,
    "latitude": 36.4575
  },
  {
    "name": "厄瓜多尔",
    "code": "ec",
    "url": "https://raw.githubusercontent.com/heisiyyds999/clash-conf/refs/heads/master/proxys/ec.yaml",
    "timezone": "America/Guayaquil",
    "longitude": -79.46274,
    "latitude": -1.44285
  },
  {
    "name": "爱沙尼亚",
    "code": "ee",
    "url": "https://raw.githubusercontent.com/heisiyyds999/clash-conf/refs/heads/master/proxys/ee.yaml",
    "timezone": "Europe/Tallinn",
    "longitude": 28.19028,
    "latitude": 59.37722
  },
  {
    "name": "埃及",
    "code": "eg",
    "url": "https://raw.githubusercontent.com/heisiyyds999/clash-conf/refs/heads/master/proxys/eg.yaml",
    "timezone": "Africa/Cairo",
    "longitude": 30.81805,
    "latitude": 30.8248
  },
  {
    "name": "西班牙",
    "code": "es",
    "url": "https://raw.githubusercontent.com/heisiyyds999/clash-conf/refs/heads/master/proxys/es.yaml",
    "timezone": "Europe/Madrid",
    "longitude": -3.60246,
    "latitude": 40.03108
  },
  {
    "name": "埃塞俄比亚",
    "code": "et",
    "url": "https://raw.githubusercontent.com/heisiyyds999/clash-conf/refs/heads/master/proxys/et.yaml",
    "timezone": "Africa/Addis_Ababa",
    "longitude": 38.7519,
    "latitude": 9.02427
  },
  {
    "name": "欧洲",
    "code": "eu",
    "url": "https://raw.githubusercontent.com/heisiyyds999/clash-conf/refs/heads/master/proxys/eu.yaml",
    "timezone": "Europe/Amsterdam",
    "longitude": 5.80859,
    "latitude": 53.20139
  },
  {
    "name": "芬兰",
    "code": "fi",
    "url": "https://raw.githubusercontent.com/heisiyyds999/clash-conf/refs/heads/master/proxys/fi.yaml",
    "timezone": "Europe/Helsinki",
    "longitude": 24.86667,
    "latitude": 60.63333
  },
  {
    "name": "斐济群岛",
    "code": "fj",
    "url": "https://raw.githubusercontent.com/heisiyyds999/clash-conf/refs/heads/master/proxys/fj.yaml",
    "timezone": "Pacific/Fiji",
    "longitude": 177.45,
    "latitude": -17.6169
  },
  {
    "name": "密克罗尼西亚联邦",
    "code": "fm",
    "url": "https://raw.githubusercontent.com/heisiyyds999/clash-conf/refs/heads/master/proxys/fm.yaml",
    "timezone": "",
    "longitude": "",
    "latitude": ""
  },
  {
    "name": "法国",
    "code": "fr",
    "url": "https://raw.githubusercontent.com/heisiyyds999/clash-conf/refs/heads/master/proxys/fr.yaml",
    "timezone": "Europe/Paris",
    "longitude": -2.00877,
    "latitude": 48.64738
  },
  {
    "name": "加蓬",
    "code": "ga",
    "url": "https://raw.githubusercontent.com/heisiyyds999/clash-conf/refs/heads/master/proxys/ga.yaml",
    "timezone": "Africa/Libreville",
    "longitude": 9.45356,
    "latitude": 0.39241
  },
  {
    "name": "英国",
    "code": "gb",
    "url": "https://raw.githubusercontent.com/heisiyyds999/clash-conf/refs/heads/master/proxys/gb.yaml",
    "timezone": "Europe/London",
    "longitude": -3.3,
    "latitude": 52.51667
  },
  {
    "name": "格林纳达",
    "code": "gd",
    "url": "https://raw.githubusercontent.com/heisiyyds999/clash-conf/refs/heads/master/proxys/gd.yaml",
    "timezone": "",
    "longitude": "",
    "latitude": ""
  },
  {
    "name": "格鲁吉亚",
    "code": "ge",
    "url": "https://raw.githubusercontent.com/heisiyyds999/clash-conf/refs/heads/master/proxys/ge.yaml",
    "timezone": "Asia/Tbilisi",
    "longitude": 41.6339,
    "latitude": 41.6423
  },
  {
    "name": "法属圭亚那",
    "code": "gf",
    "url": "https://raw.githubusercontent.com/heisiyyds999/clash-conf/refs/heads/master/proxys/gf.yaml",
    "timezone": "America/Cayenne",
    "longitude": -52.33455,
    "latitude": 4.9381
  },
  {
    "name": "根西岛",
    "code": "gg",
    "url": "https://raw.githubusercontent.com/heisiyyds999/clash-conf/refs/heads/master/proxys/gg.yaml",
    "timezone": "",
    "longitude": "",
    "latitude": ""
  },
  {
    "name": "加纳",
    "code": "gh",
    "url": "https://raw.githubusercontent.com/heisiyyds999/clash-conf/refs/heads/master/proxys/gh.yaml",
    "timezone": "Africa/Accra",
    "longitude": -0.197431,
    "latitude": 5.55928
  },
  {
    "name": "直布罗陀",
    "code": "gi",
    "url": "https://raw.githubusercontent.com/heisiyyds999/clash-conf/refs/heads/master/proxys/gi.yaml",
    "timezone": "",
    "longitude": "",
    "latitude": ""
  },
  {
    "name": "格陵兰",
    "code": "gl",
    "url": "https://raw.githubusercontent.com/heisiyyds999/clash-conf/refs/heads/master/proxys/gl.yaml",
    "timezone": "",
    "longitude": "",
    "latitude": ""
  },
  {
    "name": "冈比亚",
    "code": "gm",
    "url": "https://raw.githubusercontent.com/heisiyyds999/clash-conf/refs/heads/master/proxys/gm.yaml",
    "timezone": "",
    "longitude": "",
    "latitude": ""
  },
  {
    "name": "几内亚",
    "code": "gn",
    "url": "https://raw.githubusercontent.com/heisiyyds999/clash-conf/refs/heads/master/proxys/gn.yaml",
    "timezone": "Africa/Conakry",
    "longitude": -13.4167,
    "latitude": 9.7333
  },
  {
    "name": "瓜德罗普",
    "code": "gp",
    "url": "https://raw.githubusercontent.com/heisiyyds999/clash-conf/refs/heads/master/proxys/gp.yaml",
    "timezone": "America/Guadeloupe",
    "longitude": -61.50507,
    "latitude": 16.273
  },
  {
    "name": "赤道几内亚",
    "code": "gq",
    "url": "https://raw.githubusercontent.com/heisiyyds999/clash-conf/refs/heads/master/proxys/gq.yaml",
    "timezone": "",
    "longitude": "",
    "latitude": ""
  },
  {
    "name": "希腊",
    "code": "gr",
    "url": "https://raw.githubusercontent.com/heisiyyds999/clash-conf/refs/heads/master/proxys/gr.yaml",
    "timezone": "Europe/Athens",
    "longitude": 22.9477,
    "latitude": 39.3692
  },
  {
    "name": "危地马拉",
    "code": "gt",
    "url": "https://raw.githubusercontent.com/heisiyyds999/clash-conf/refs/heads/master/proxys/gt.yaml",
    "timezone": "America/Guatemala",
    "longitude": -90.51327,
    "latitude": 14.64072
  },
  {
    "name": "关岛",
    "code": "gu",
    "url": "https://raw.githubusercontent.com/heisiyyds999/clash-conf/refs/heads/master/proxys/gu.yaml",
    "timezone": "",
    "longitude": "",
    "latitude": ""
  },
  {
    "name": "几内亚比绍",
    "code": "gw",
    "url": "https://raw.githubusercontent.com/heisiyyds999/clash-conf/refs/heads/master/proxys/gw.yaml",
    "timezone": "",
    "longitude": "",
    "latitude": ""
  },
  {
    "name": "圭亚那",
    "code": "gy",
    "url": "https://raw.githubusercontent.com/heisiyyds999/clash-conf/refs/heads/master/proxys/gy.yaml",
    "timezone": "America/Guyana",
    "longitude": -58.1551,
    "latitude": 6.80128
  },
  {
    "name": "中国香港",
    "code": "hk",
    "url": "https://raw.githubusercontent.com/heisiyyds999/clash-conf/refs/heads/master/proxys/hk.yaml",
    "timezone": "Asia/Hong_Kong",
    "longitude": 114.175,
    "latitude": 22.2783
  },
  {
    "name": "洪都拉斯",
    "code": "hn",
    "url": "https://raw.githubusercontent.com/heisiyyds999/clash-conf/refs/heads/master/proxys/hn.yaml",
    "timezone": "America/Tegucigalpa",
    "longitude": -87.17882,
    "latitude": 13.30569
  },
  {
    "name": "克罗地亚",
    "code": "hr",
    "url": "https://raw.githubusercontent.com/heisiyyds999/clash-conf/refs/heads/master/proxys/hr.yaml",
    "timezone": "Europe/Sarajevo",
    "longitude": 17.25,
    "latitude": 45.14111
  },
  {
    "name": "海地共和国",
    "code": "ht",
    "url": "https://raw.githubusercontent.com/heisiyyds999/clash-conf/refs/heads/master/proxys/ht.yaml",
    "timezone": "America/Port-au-Prince",
    "longitude": -72.68928,
    "latitude": 19.44755
  },
  {
    "name": "匈牙利",
    "code": "hu",
    "url": "https://raw.githubusercontent.com/heisiyyds999/clash-conf/refs/heads/master/proxys/hu.yaml",
    "timezone": "Europe/Budapest",
    "longitude": 21.71671,
    "latitude": 47.95539
  },
  {
    "name": "印度尼西亚",
    "code": "id",
    "url": "https://raw.githubusercontent.com/heisiyyds999/clash-conf/refs/heads/master/proxys/id.yaml",
    "timezone": "Asia/Jakarta",
    "longitude": 106.846,
    "latitude": -6.20876
  },
  {
    "name": "爱尔兰",
    "code": "ie",
    "url": "https://raw.githubusercontent.com/heisiyyds999/clash-conf/refs/heads/master/proxys/ie.yaml",
    "timezone": "Europe/Dublin",
    "longitude": -6.92611,
    "latitude": 52.84083
  },
  {
    "name": "以色列",
    "code": "il",
    "url": "https://raw.githubusercontent.com/heisiyyds999/clash-conf/refs/heads/master/proxys/il.yaml",
    "timezone": "Asia/Jerusalem",
    "longitude": 34.7806,
    "latitude": 32.0809
  },
  {
    "name": "马恩岛",
    "code": "im",
    "url": "https://raw.githubusercontent.com/heisiyyds999/clash-conf/refs/heads/master/proxys/im.yaml",
    "timezone": "",
    "longitude": "",
    "latitude": ""
  },
  {
    "name": "印度",
    "code": "in",
    "url": "https://raw.githubusercontent.com/heisiyyds999/clash-conf/refs/heads/master/proxys/in.yaml",
    "timezone": "Asia/Kolkata",
    "longitude": 75.85379,
    "latitude": 30.91204
  },
  {
    "name": "伊拉克",
    "code": "iq",
    "url": "https://raw.githubusercontent.com/heisiyyds999/clash-conf/refs/heads/master/proxys/iq.yaml",
    "timezone": "Asia/Baghdad",
    "longitude": 44.0107,
    "latitude": 36.1877
  },
  {
    "name": "伊朗",
    "code": "ir",
    "url": "https://raw.githubusercontent.com/heisiyyds999/clash-conf/refs/heads/master/proxys/ir.yaml",
    "timezone": "Asia/Tehran",
    "longitude": 46.2919,
    "latitude": 38.08
  },
  {
    "name": "冰岛",
    "code": "is",
    "url": "https://raw.githubusercontent.com/heisiyyds999/clash-conf/refs/heads/master/proxys/is.yaml",
    "timezone": "Atlantic/Reykjavik",
    "longitude": -21.8988,
    "latitude": 64.143
  },
  {
    "name": "意大利",
    "code": "it",
    "url": "https://raw.githubusercontent.com/heisiyyds999/clash-conf/refs/heads/master/proxys/it.yaml",
    "timezone": "Europe/Rome",
    "longitude": 8.94439,
    "latitude": 44.40478
  },
  {
    "name": "泽西岛",
    "code": "je",
    "url": "https://raw.githubusercontent.com/heisiyyds999/clash-conf/refs/heads/master/proxys/je.yaml",
    "timezone": "",
    "longitude": "",
    "latitude": ""
  },
  {
    "name": "牙买加",
    "code": "jm",
    "url": "https://raw.githubusercontent.com/heisiyyds999/clash-conf/refs/heads/master/proxys/jm.yaml",
    "timezone": "America/Jamaica",
    "longitude": -76.7932,
    "latitude": 18.0028
  },
  {
    "name": "约旦",
    "code": "jo",
    "url": "https://raw.githubusercontent.com/heisiyyds999/clash-conf/refs/heads/master/proxys/jo.yaml",
    "timezone": "Asia/Amman",
    "longitude": 35.9457,
    "latitude": 31.9566
  },
  {
    "name": "日本",
    "code": "jp",
    "url": "https://raw.githubusercontent.com/heisiyyds999/clash-conf/refs/heads/master/proxys/jp.yaml",
    "timezone": "Asia/Tokyo",
    "longitude": 139.69171,
    "latitude": 35.6895
  },
  {
    "name": "肯尼亚",
    "code": "ke",
    "url": "https://raw.githubusercontent.com/heisiyyds999/clash-conf/refs/heads/master/proxys/ke.yaml",
    "timezone": "Africa/Nairobi",
    "longitude": 38.02396,
    "latitude": 1.08262
  },
  {
    "name": "吉尔吉斯斯坦",
    "code": "kg",
    "url": "https://raw.githubusercontent.com/heisiyyds999/clash-conf/refs/heads/master/proxys/kg.yaml",
    "timezone": "Asia/Bishkek",
    "longitude": 74.59,
    "latitude": 42.87
  },
  {
    "name": "柬埔寨",
    "code": "kh",
    "url": "https://raw.githubusercontent.com/heisiyyds999/clash-conf/refs/heads/master/proxys/kh.yaml",
    "timezone": "Asia/Phnom_Penh",
    "longitude": 104.916,
    "latitude": 11.5625
  },
  {
    "name": "科摩罗",
    "code": "km",
    "url": "https://raw.githubusercontent.com/heisiyyds999/clash-conf/refs/heads/master/proxys/km.yaml",
    "timezone": "Indian/Comoro",
    "longitude": 43.25506,
    "latitude": -11.70216
  },
  {
    "name": "圣基茨和尼维斯",
    "code": "kn",
    "url": "https://raw.githubusercontent.com/heisiyyds999/clash-conf/refs/heads/master/proxys/kn.yaml",
    "timezone": "",
    "longitude": "",
    "latitude": ""
  },
  {
    "name": "韩国",
    "code": "kr",
    "url": "https://raw.githubusercontent.com/heisiyyds999/clash-conf/refs/heads/master/proxys/kr.yaml",
    "timezone": "Asia/Seoul",
    "longitude": 126.9784,
    "latitude": 37.566
  },
  {
    "name": "科威特",
    "code": "kw",
    "url": "https://raw.githubusercontent.com/heisiyyds999/clash-conf/refs/heads/master/proxys/kw.yaml",
    "timezone": "Asia/Kuwait",
    "longitude": 47.658204,
    "latitude": 29.337478
  },
  {
    "name": "开曼群岛",
    "code": "ky",
    "url": "https://raw.githubusercontent.com/heisiyyds999/clash-conf/refs/heads/master/proxys/ky.yaml",
    "timezone": "America/Cayman",
    "longitude": -81.3674,
    "latitude": 19.2869
  },
  {
    "name": "哈萨克斯坦",
    "code": "kz",
    "url": "https://raw.githubusercontent.com/heisiyyds999/clash-conf/refs/heads/master/proxys/kz.yaml",
    "timezone": "Asia/Almaty",
    "longitude": 73.1021,
    "latitude": 49.8019
  },
  {
    "name": "老挝",
    "code": "la",
    "url": "https://raw.githubusercontent.com/heisiyyds999/clash-conf/refs/heads/master/proxys/la.yaml",
    "timezone": "Asia/Vientiane",
    "longitude": 102.602,
    "latitude": 17.967
  },
  {
    "name": "黎巴嫩",
    "code": "lb",
    "url": "https://raw.githubusercontent.com/heisiyyds999/clash-conf/refs/heads/master/proxys/lb.yaml",
    "timezone": "Asia/Beirut",
    "longitude": 35.3729,
    "latitude": 33.5571
  },
  {
    "name": "圣卢西亚",
    "code": "lc",
    "url": "https://raw.githubusercontent.com/heisiyyds999/clash-conf/refs/heads/master/proxys/lc.yaml",
    "timezone": "America/St_Lucia",
    "longitude": -60.95,
    "latitude": 14.06667
  },
  {
    "name": "列支敦士登",
    "code": "li",
    "url": "https://raw.githubusercontent.com/heisiyyds999/clash-conf/refs/heads/master/proxys/li.yaml",
    "timezone": "",
    "longitude": "",
    "latitude": ""
  },
  {
    "name": "斯里兰卡",
    "code": "lk",
    "url": "https://raw.githubusercontent.com/heisiyyds999/clash-conf/refs/heads/master/proxys/lk.yaml",
    "timezone": "Asia/Colombo",
    "longitude": 79.84868,
    "latitude": 6.93548
  },
  {
    "name": "利比里亚",
    "code": "lr",
    "url": "https://raw.githubusercontent.com/heisiyyds999/clash-conf/refs/heads/master/proxys/lr.yaml",
    "timezone": "",
    "longitude": "",
    "latitude": ""
  },
  {
    "name": "莱索托",
    "code": "ls",
    "url": "https://raw.githubusercontent.com/heisiyyds999/clash-conf/refs/heads/master/proxys/ls.yaml",
    "timezone": "Africa/Maseru",
    "longitude": 27.483277,
    "latitude": -29.316609
  },
  {
    "name": "立陶宛",
    "code": "lt",
    "url": "https://raw.githubusercontent.com/heisiyyds999/clash-conf/refs/heads/master/proxys/lt.yaml",
    "timezone": "Europe/Vilnius",
    "longitude": 25.2798,
    "latitude": 54.68916
  },
  {
    "name": "卢森堡",
    "code": "lu",
    "url": "https://raw.githubusercontent.com/heisiyyds999/clash-conf/refs/heads/master/proxys/lu.yaml",
    "timezone": "Europe/Berlin",
    "longitude": 6.52734,
    "latitude": 49.96794
  },
  {
    "name": "拉脱维亚",
    "code": "lv",
    "url": "https://raw.githubusercontent.com/heisiyyds999/clash-conf/refs/heads/master/proxys/lv.yaml",
    "timezone": "Europe/Riga",
    "longitude": 24.10589,
    "latitude": 56.946
  },
  {
    "name": "利比亚",
    "code": "ly",
    "url": "https://raw.githubusercontent.com/heisiyyds999/clash-conf/refs/heads/master/proxys/ly.yaml",
    "timezone": "Africa/Tripoli",
    "longitude": 20.0686,
    "latitude": 32.1149
  },
  {
    "name": "摩洛哥",
    "code": "ma",
    "url": "https://raw.githubusercontent.com/heisiyyds999/clash-conf/refs/heads/master/proxys/ma.yaml",
    "timezone": "Africa/Casablanca",
    "longitude": -9.23718,
    "latitude": 32.29939
  },
  {
    "name": "摩纳哥",
    "code": "mc",
    "url": "https://raw.githubusercontent.com/heisiyyds999/clash-conf/refs/heads/master/proxys/mc.yaml",
    "timezone": "",
    "longitude": "",
    "latitude": ""
  },
  {
    "name": "摩尔多瓦",
    "code": "md",
    "url": "https://raw.githubusercontent.com/heisiyyds999/clash-conf/refs/heads/master/proxys/md.yaml",
    "timezone": "Europe/Chisinau",
    "longitude": 27.92932,
    "latitude": 47.76314
  },
  {
    "name": "黑山",
    "code": "me",
    "url": "https://raw.githubusercontent.com/heisiyyds999/clash-conf/refs/heads/master/proxys/me.yaml",
    "timezone": "Europe/Podgorica",
    "longitude": 19.12325,
    "latitude": 43.15423
  },
  {
    "name": "法属圣马丁",
    "code": "mf",
    "url": "https://raw.githubusercontent.com/heisiyyds999/clash-conf/refs/heads/master/proxys/mf.yaml",
    "timezone": "",
    "longitude": "",
    "latitude": ""
  },
  {
    "name": "马达加斯加",
    "code": "mg",
    "url": "https://raw.githubusercontent.com/heisiyyds999/clash-conf/refs/heads/master/proxys/mg.yaml",
    "timezone": "Indian/Antananarivo",
    "longitude": 47.536215,
    "latitude": -18.913536
  },
  {
    "name": "马其顿",
    "code": "mk",
    "url": "https://raw.githubusercontent.com/heisiyyds999/clash-conf/refs/heads/master/proxys/mk.yaml",
    "timezone": "Europe/Skopje",
    "longitude": 21.71444,
    "latitude": 42.13222
  },
  {
    "name": "马里",
    "code": "ml",
    "url": "https://raw.githubusercontent.com/heisiyyds999/clash-conf/refs/heads/master/proxys/ml.yaml",
    "timezone": "Africa/Bamako",
    "longitude": -7.97522,
    "latitude": 12.6091
  },
  {
    "name": "缅甸",
    "code": "mm",
    "url": "https://raw.githubusercontent.com/heisiyyds999/clash-conf/refs/heads/master/proxys/mm.yaml",
    "timezone": "Asia/Yangon",
    "longitude": 95.457,
    "latitude": 17.6494
  },
  {
    "name": "蒙古国",
    "code": "mn",
    "url": "https://raw.githubusercontent.com/heisiyyds999/clash-conf/refs/heads/master/proxys/mn.yaml",
    "timezone": "",
    "longitude": "",
    "latitude": ""
  },
  {
    "name": "中国澳门",
    "code": "mo",
    "url": "https://raw.githubusercontent.com/heisiyyds999/clash-conf/refs/heads/master/proxys/mo.yaml",
    "timezone": "Asia/Shanghai",
    "longitude": 113.56778,
    "latitude": 22.27694
  },
  {
    "name": "马提尼克",
    "code": "mq",
    "url": "https://raw.githubusercontent.com/heisiyyds999/clash-conf/refs/heads/master/proxys/mq.yaml",
    "timezone": "America/Martinique",
    "longitude": -61.07418,
    "latitude": 14.60365
  },
  {
    "name": "毛里塔尼亚",
    "code": "mr",
    "url": "https://raw.githubusercontent.com/heisiyyds999/clash-conf/refs/heads/master/proxys/mr.yaml",
    "timezone": "Africa/Nouakchott",
    "longitude": -15.9785,
    "latitude": 18.08581
  },
  {
    "name": "马耳他",
    "code": "mt",
    "url": "https://raw.githubusercontent.com/heisiyyds999/clash-conf/refs/heads/master/proxys/mt.yaml",
    "timezone": "Europe/Malta",
    "longitude": 14.41561,
    "latitude": 35.95064
  },
  {
    "name": "毛里求斯",
    "code": "mu",
    "url": "https://raw.githubusercontent.com/heisiyyds999/clash-conf/refs/heads/master/proxys/mu.yaml",
    "timezone": "Indian/Mauritius",
    "longitude": 57.5007,
    "latitude": -20.162
  },
  {
    "name": "马尔代夫",
    "code": "mv",
    "url": "https://raw.githubusercontent.com/heisiyyds999/clash-conf/refs/heads/master/proxys/mv.yaml",
    "timezone": "Indian/Maldives",
    "longitude": 73.5091,
    "latitude": 4.17527
  },
  {
    "name": "马拉维",
    "code": "mw",
    "url": "https://raw.githubusercontent.com/heisiyyds999/clash-conf/refs/heads/master/proxys/mw.yaml",
    "timezone": "Africa/Blantyre",
    "longitude": 35.00854,
    "latitude": -15.78499
  },
  {
    "name": "墨西哥",
    "code": "mx",
    "url": "https://raw.githubusercontent.com/heisiyyds999/clash-conf/refs/heads/master/proxys/mx.yaml",
    "timezone": "America/Mexico_City",
    "longitude": -99.12766,
    "latitude": 19.42847
  },
  {
    "name": "马来西亚",
    "code": "my",
    "url": "https://raw.githubusercontent.com/heisiyyds999/clash-conf/refs/heads/master/proxys/my.yaml",
    "timezone": "Asia/Kuching",
    "longitude": 113.03333,
    "latitude": 3.16667
  },
  {
    "name": "莫桑比克",
    "code": "mz",
    "url": "https://raw.githubusercontent.com/heisiyyds999/clash-conf/refs/heads/master/proxys/mz.yaml",
    "timezone": "Africa/Maputo",
    "longitude": 34.83889,
    "latitude": -19.84361
  },
  {
    "name": "纳米比亚",
    "code": "na",
    "url": "https://raw.githubusercontent.com/heisiyyds999/clash-conf/refs/heads/master/proxys/na.yaml",
    "timezone": "Africa/Windhoek",
    "longitude": 14.53333,
    "latitude": -22.68333
  },
  {
    "name": "新喀里多尼亚",
    "code": "nc",
    "url": "https://raw.githubusercontent.com/heisiyyds999/clash-conf/refs/heads/master/proxys/nc.yaml",
    "timezone": "",
    "longitude": "",
    "latitude": ""
  },
  {
    "name": "尼日尔共和国",
    "code": "ne",
    "url": "https://raw.githubusercontent.com/heisiyyds999/clash-conf/refs/heads/master/proxys/ne.yaml",
    "timezone": "Africa/Niamey",
    "longitude": 2.11252,
    "latitude": 13.5127
  },
  {
    "name": "尼日利亚",
    "code": "ng",
    "url": "https://raw.githubusercontent.com/heisiyyds999/clash-conf/refs/heads/master/proxys/ng.yaml",
    "timezone": "Africa/Lagos",
    "longitude": 3.39467,
    "latitude": 6.45407
  },
  {
    "name": "尼加拉瓜",
    "code": "ni",
    "url": "https://raw.githubusercontent.com/heisiyyds999/clash-conf/refs/heads/master/proxys/ni.yaml",
    "timezone": "America/Managua",
    "longitude": -86.2504,
    "latitude": 12.1328
  },
  {
    "name": "荷兰",
    "code": "nl",
    "url": "https://raw.githubusercontent.com/heisiyyds999/clash-conf/refs/heads/master/proxys/nl.yaml",
    "timezone": "Europe/Amsterdam",
    "longitude": 4.88969,
    "latitude": 52.37403
  },
  {
    "name": "挪威",
    "code": "no",
    "url": "https://raw.githubusercontent.com/heisiyyds999/clash-conf/refs/heads/master/proxys/no.yaml",
    "timezone": "Europe/Oslo",
    "longitude": 10.74609,
    "latitude": 59.91273
  },
  {
    "name": "尼泊尔",
    "code": "np",
    "url": "https://raw.githubusercontent.com/heisiyyds999/clash-conf/refs/heads/master/proxys/np.yaml",
    "timezone": "Asia/Kathmandu",
    "longitude": 84.8808,
    "latitude": 27.0171
  },
  {
    "name": "新西兰",
    "code": "nz",
    "url": "https://raw.githubusercontent.com/heisiyyds999/clash-conf/refs/heads/master/proxys/nz.yaml",
    "timezone": "Pacific/Auckland",
    "longitude": 174.76349,
    "latitude": -36.84853
  },
  {
    "name": "阿曼",
    "code": "om",
    "url": "https://raw.githubusercontent.com/heisiyyds999/clash-conf/refs/heads/master/proxys/om.yaml",
    "timezone": "Asia/Muscat",
    "longitude": 54.0924,
    "latitude": 17.0151
  },
  {
    "name": "巴拿马",
    "code": "pa",
    "url": "https://raw.githubusercontent.com/heisiyyds999/clash-conf/refs/heads/master/proxys/pa.yaml",
    "timezone": "America/Panama",
    "longitude": -79.51973,
    "latitude": 8.9936
  },
  {
    "name": "秘鲁",
    "code": "pe",
    "url": "https://raw.githubusercontent.com/heisiyyds999/clash-conf/refs/heads/master/proxys/pe.yaml",
    "timezone": "America/Lima",
    "longitude": -77.02824,
    "latitude": -12.04318
  },
  {
    "name": "法属波利尼西亚",
    "code": "pf",
    "url": "https://raw.githubusercontent.com/heisiyyds999/clash-conf/refs/heads/master/proxys/pf.yaml",
    "timezone": "",
    "longitude": "",
    "latitude": ""
  },
  {
    "name": "巴布亚新几内亚",
    "code": "pg",
    "url": "https://raw.githubusercontent.com/heisiyyds999/clash-conf/refs/heads/master/proxys/pg.yaml",
    "timezone": "Pacific/Port_Moresby",
    "longitude": 147.149,
    "latitude": -9.479
  },
  {
    "name": "菲律宾",
    "code": "ph",
    "url": "https://raw.githubusercontent.com/heisiyyds999/clash-conf/refs/heads/master/proxys/ph.yaml",
    "timezone": "Asia/Manila",
    "longitude": 123.30769,
    "latitude": 9.30646
  },
  {
    "name": "巴基斯坦",
    "code": "pk",
    "url": "https://raw.githubusercontent.com/heisiyyds999/clash-conf/refs/heads/master/proxys/pk.yaml",
    "timezone": "Asia/Karachi",
    "longitude": 74.35071,
    "latitude": 31.558
  },
  {
    "name": "波兰",
    "code": "pl",
    "url": "https://raw.githubusercontent.com/heisiyyds999/clash-conf/refs/heads/master/proxys/pl.yaml",
    "timezone": "Europe/Prague",
    "longitude": 18.67078,
    "latitude": 49.67763
  },
  {
    "name": "波多黎各",
    "code": "pr",
    "url": "https://raw.githubusercontent.com/heisiyyds999/clash-conf/refs/heads/master/proxys/pr.yaml",
    "timezone": "America/Puerto_Rico",
    "longitude": -66.10572,
    "latitude": 18.46633
  },
  {
    "name": "巴勒斯坦",
    "code": "ps",
    "url": "https://raw.githubusercontent.com/heisiyyds999/clash-conf/refs/heads/master/proxys/ps.yaml",
    "timezone": "Asia/Hebron",
    "longitude": 35.09443,
    "latitude": 31.4459
  },
  {
    "name": "葡萄牙",
    "code": "pt",
    "url": "https://raw.githubusercontent.com/heisiyyds999/clash-conf/refs/heads/master/proxys/pt.yaml",
    "timezone": "Europe/Lisbon",
    "longitude": -9.1498,
    "latitude": 38.72509
  },
  {
    "name": "帕劳",
    "code": "pw",
    "url": "https://raw.githubusercontent.com/heisiyyds999/clash-conf/refs/heads/master/proxys/pw.yaml",
    "timezone": "",
    "longitude": "",
    "latitude": ""
  },
  {
    "name": "巴拉圭",
    "code": "py",
    "url": "https://raw.githubusercontent.com/heisiyyds999/clash-conf/refs/heads/master/proxys/py.yaml",
    "timezone": "America/Asuncion",
    "longitude": -56.8395,
    "latitude": -27.3842
  },
  {
    "name": "卡塔尔",
    "code": "qa",
    "url": "https://raw.githubusercontent.com/heisiyyds999/clash-conf/refs/heads/master/proxys/qa.yaml",
    "timezone": "Asia/Qatar",
    "longitude": 51.531,
    "latitude": 25.2854
  },
  {
    "name": "留尼汪",
    "code": "re",
    "url": "https://raw.githubusercontent.com/heisiyyds999/clash-conf/refs/heads/master/proxys/re.yaml",
    "timezone": "Indian/Reunion",
    "longitude": 55.47811,
    "latitude": -21.3393
  },
  {
    "name": "罗马尼亚",
    "code": "ro",
    "url": "https://raw.githubusercontent.com/heisiyyds999/clash-conf/refs/heads/master/proxys/ro.yaml",
    "timezone": "Europe/Bucharest",
    "longitude": 23.36667,
    "latitude": 45.41667
  },
  {
    "name": "塞尔维亚",
    "code": "rs",
    "url": "https://raw.githubusercontent.com/heisiyyds999/clash-conf/refs/heads/master/proxys/rs.yaml",
    "timezone": "Europe/Belgrade",
    "longitude": 19.8362,
    "latitude": 45.25
  },
  {
    "name": "俄罗斯",
    "code": "ru",
    "url": "https://raw.githubusercontent.com/heisiyyds999/clash-conf/refs/heads/master/proxys/ru.yaml",
    "timezone": "Europe/Moscow",
    "longitude": 41.9734,
    "latitude": 45.0428
  },
  {
    "name": "卢旺达",
    "code": "rw",
    "url": "https://raw.githubusercontent.com/heisiyyds999/clash-conf/refs/heads/master/proxys/rw.yaml",
    "timezone": "Africa/Kigali",
    "longitude": 29.63497,
    "latitude": -1.49984
  },
  {
    "name": "沙特阿拉伯",
    "code": "sa",
    "url": "https://raw.githubusercontent.com/heisiyyds999/clash-conf/refs/heads/master/proxys/sa.yaml",
    "timezone": "Asia/Riyadh",
    "longitude": 39.1862,
    "latitude": 21.4901
  },
  {
    "name": "所罗门群岛",
    "code": "sb",
    "url": "https://raw.githubusercontent.com/heisiyyds999/clash-conf/refs/heads/master/proxys/sb.yaml",
    "timezone": "",
    "longitude": "",
    "latitude": ""
  },
  {
    "name": "塞舌尔共和国",
    "code": "sc",
    "url": "https://raw.githubusercontent.com/heisiyyds999/clash-conf/refs/heads/master/proxys/sc.yaml",
    "timezone": "",
    "longitude": "",
    "latitude": ""
  },
  {
    "name": "苏丹",
    "code": "sd",
    "url": "https://raw.githubusercontent.com/heisiyyds999/clash-conf/refs/heads/master/proxys/sd.yaml",
    "timezone": "Africa/Khartoum",
    "longitude": 37.21644,
    "latitude": 19.61745
  },
  {
    "name": "瑞典",
    "code": "se",
    "url": "https://raw.githubusercontent.com/heisiyyds999/clash-conf/refs/heads/master/proxys/se.yaml",
    "timezone": "Europe/Stockholm",
    "longitude": 18.06871,
    "latitude": 59.32938
  },
  {
    "name": "新加坡",
    "code": "sg",
    "url": "https://raw.githubusercontent.com/heisiyyds999/clash-conf/refs/heads/master/proxys/sg.yaml",
    "timezone": "Asia/Singapore",
    "longitude": 103.850281,
    "latitude": 1.289987
  },
  {
    "name": "斯洛文尼亚",
    "code": "si",
    "url": "https://raw.githubusercontent.com/heisiyyds999/clash-conf/refs/heads/master/proxys/si.yaml",
    "timezone": "Europe/Ljubljana",
    "longitude": 14.5051,
    "latitude": 46.0511
  },
  {
    "name": "斯洛伐克",
    "code": "sk",
    "url": "https://raw.githubusercontent.com/heisiyyds999/clash-conf/refs/heads/master/proxys/sk.yaml",
    "timezone": "Europe/Bratislava",
    "longitude": 17.58723,
    "latitude": 48.37741
  },
  {
    "name": "塞拉利昂",
    "code": "sl",
    "url": "https://raw.githubusercontent.com/heisiyyds999/clash-conf/refs/heads/master/proxys/sl.yaml",
    "timezone": "Africa/Freetown",
    "longitude": -10.9714,
    "latitude": 8.64387
  },
  {
    "name": "塞内加尔",
    "code": "sn",
    "url": "https://raw.githubusercontent.com/heisiyyds999/clash-conf/refs/heads/master/proxys/sn.yaml",
    "timezone": "Africa/Dakar",
    "longitude": -17.4441,
    "latitude": 14.6937
  },
  {
    "name": "索马里",
    "code": "so",
    "url": "https://raw.githubusercontent.com/heisiyyds999/clash-conf/refs/heads/master/proxys/so.yaml",
    "timezone": "Africa/Mogadishu",
    "longitude": 44.065,
    "latitude": 9.56
  },
  {
    "name": "苏里南",
    "code": "sr",
    "url": "https://raw.githubusercontent.com/heisiyyds999/clash-conf/refs/heads/master/proxys/sr.yaml",
    "timezone": "",
    "longitude": "",
    "latitude": ""
  },
  {
    "name": "南苏丹",
    "code": "ss",
    "url": "https://raw.githubusercontent.com/heisiyyds999/clash-conf/refs/heads/master/proxys/ss.yaml",
    "timezone": "",
    "longitude": "",
    "latitude": ""
  },
  {
    "name": "圣多美和普林西比",
    "code": "st",
    "url": "https://raw.githubusercontent.com/heisiyyds999/clash-conf/refs/heads/master/proxys/st.yaml",
    "timezone": "",
    "longitude": "",
    "latitude": ""
  },
  {
    "name": "萨尔瓦多",
    "code": "sv",
    "url": "https://raw.githubusercontent.com/heisiyyds999/clash-conf/refs/heads/master/proxys/sv.yaml",
    "timezone": "America/El_Salvador",
    "longitude": -89.7242,
    "latitude": 13.7189
  },
  {
    "name": "荷属圣马丁",
    "code": "sx",
    "url": "https://raw.githubusercontent.com/heisiyyds999/clash-conf/refs/heads/master/proxys/sx.yaml",
    "timezone": "",
    "longitude": "",
    "latitude": ""
  },
  {
    "name": "叙利亚",
    "code": "sy",
    "url": "https://raw.githubusercontent.com/heisiyyds999/clash-conf/refs/heads/master/proxys/sy.yaml",
    "timezone": "Asia/Damascus",
    "longitude": 37.161403,
    "latitude": 36.200736
  },
  {
    "name": "斯威士兰",
    "code": "sz",
    "url": "https://raw.githubusercontent.com/heisiyyds999/clash-conf/refs/heads/master/proxys/sz.yaml",
    "timezone": "Africa/Mbabane",
    "longitude": 31.13333,
    "latitude": -26.31667
  },
  {
    "name": "多哥",
    "code": "tg",
    "url": "https://raw.githubusercontent.com/heisiyyds999/clash-conf/refs/heads/master/proxys/tg.yaml",
    "timezone": "Africa/Lome",
    "longitude": 1.21965,
    "latitude": 6.12956
  },
  {
    "name": "泰国",
    "code": "th",
    "url": "https://raw.githubusercontent.com/heisiyyds999/clash-conf/refs/heads/master/proxys/th.yaml",
    "timezone": "Asia/Bangkok",
    "longitude": 100.47668,
    "latitude": 7.00836
  },
  {
    "name": "塔吉克斯坦",
    "code": "tj",
    "url": "https://raw.githubusercontent.com/heisiyyds999/clash-conf/refs/heads/master/proxys/tj.yaml",
    "timezone": "Asia/Dushanbe",
    "longitude": 68.78,
    "latitude": 38.5367
  },
  {
    "name": "托克劳",
    "code": "tk",
    "url": "https://raw.githubusercontent.com/heisiyyds999/clash-conf/refs/heads/master/proxys/tk.yaml",
    "timezone": "",
    "longitude": "",
    "latitude": ""
  },
  {
    "name": "东帝汶",
    "code": "tl",
    "url": "https://raw.githubusercontent.com/heisiyyds999/clash-conf/refs/heads/master/proxys/tl.yaml",
    "timezone": "",
    "longitude": "",
    "latitude": ""
  },
  {
    "name": "土库曼斯坦",
    "code": "tm",
    "url": "https://raw.githubusercontent.com/heisiyyds999/clash-conf/refs/heads/master/proxys/tm.yaml",
    "timezone": "Asia/Ashgabat",
    "longitude": 58.3833,
    "latitude": 37.95
  },
  {
    "name": "突尼斯",
    "code": "tn",
    "url": "https://raw.githubusercontent.com/heisiyyds999/clash-conf/refs/heads/master/proxys/tn.yaml",
    "timezone": "Africa/Tunis",
    "longitude": 10.63699,
    "latitude": 35.82539
  },
  {
    "name": "土耳其",
    "code": "tr",
    "url": "https://raw.githubusercontent.com/heisiyyds999/clash-conf/refs/heads/master/proxys/tr.yaml",
    "timezone": "Europe/Istanbul",
    "longitude": 28.94966,
    "latitude": 41.01384
  },
  {
    "name": "特立尼达和多巴哥",
    "code": "tt",
    "url": "https://raw.githubusercontent.com/heisiyyds999/clash-conf/refs/heads/master/proxys/tt.yaml",
    "timezone": "America/Port_of_Spain",
    "longitude": -61.41667,
    "latitude": 10.51667
  },
  {
    "name": "中国台湾",
    "code": "tw",
    "url": "https://raw.githubusercontent.com/heisiyyds999/clash-conf/refs/heads/master/proxys/tw.yaml",
    "timezone": "Asia/Taipei",
    "longitude": 121.526,
    "latitude": 25.0531
  },
  {
    "name": "坦桑尼亚",
    "code": "tz",
    "url": "https://raw.githubusercontent.com/heisiyyds999/clash-conf/refs/heads/master/proxys/tz.yaml",
    "timezone": "Africa/Dar_es_Salaam",
    "longitude": 39.2695,
    "latitude": -6.82349
  },
  {
    "name": "乌克兰",
    "code": "ua",
    "url": "https://raw.githubusercontent.com/heisiyyds999/clash-conf/refs/heads/master/proxys/ua.yaml",
    "timezone": "Europe/Moscow",
    "longitude": 38.52837,
    "latitude": 47.56072
  },
  {
    "name": "乌干达",
    "code": "ug",
    "url": "https://raw.githubusercontent.com/heisiyyds999/clash-conf/refs/heads/master/proxys/ug.yaml",
    "timezone": "Africa/Kampala",
    "longitude": 32.5816,
    "latitude": 0.315169
  },
  {
    "name": "美国",
    "code": "us",
    "url": "https://raw.githubusercontent.com/heisiyyds999/clash-conf/refs/heads/master/proxys/us.yaml",
    "timezone": "America/Chicago",
    "longitude": -94.57857,
    "latitude": 39.09973
  },
  {
    "name": "乌拉圭",
    "code": "uy",
    "url": "https://raw.githubusercontent.com/heisiyyds999/clash-conf/refs/heads/master/proxys/uy.yaml",
    "timezone": "America/Montevideo",
    "longitude": -56.18816,
    "latitude": -34.90328
  },
  {
    "name": "乌兹别克斯坦",
    "code": "uz",
    "url": "https://raw.githubusercontent.com/heisiyyds999/clash-conf/refs/heads/master/proxys/uz.yaml",
    "timezone": "Asia/Tashkent",
    "longitude": 69.2163,
    "latitude": 41.2646
  },
  {
    "name": "梵蒂冈",
    "code": "va",
    "url": "https://raw.githubusercontent.com/heisiyyds999/clash-conf/refs/heads/master/proxys/va.yaml",
    "timezone": "",
    "longitude": "",
    "latitude": ""
  },
  {
    "name": "圣文森特岛",
    "code": "vc",
    "url": "https://raw.githubusercontent.com/heisiyyds999/clash-conf/refs/heads/master/proxys/vc.yaml",
    "timezone": "",
    "longitude": "",
    "latitude": ""
  },
  {
    "name": "委内瑞拉",
    "code": "ve",
    "url": "https://raw.githubusercontent.com/heisiyyds999/clash-conf/refs/heads/master/proxys/ve.yaml",
    "timezone": "America/Caracas",
    "longitude": -71.16922,
    "latitude": 8.57899
  },
  {
    "name": "英属维尔京群岛",
    "code": "vg",
    "url": "https://raw.githubusercontent.com/heisiyyds999/clash-conf/refs/heads/master/proxys/vg.yaml",
    "timezone": "",
    "longitude": "",
    "latitude": ""
  },
  {
    "name": "美属维尔京群岛",
    "code": "vi",
    "url": "https://raw.githubusercontent.com/heisiyyds999/clash-conf/refs/heads/master/proxys/vi.yaml",
    "timezone": "America/St_Thomas",
    "longitude": -64.74698,
    "latitude": 17.72751
  },
  {
    "name": "越南",
    "code": "vn",
    "url": "https://raw.githubusercontent.com/heisiyyds999/clash-conf/refs/heads/master/proxys/vn.yaml",
    "timezone": "Asia/Ho_Chi_Minh",
    "longitude": 106.63,
    "latitude": 10.8231
  },
  {
    "name": "瓦努阿图",
    "code": "vu",
    "url": "https://raw.githubusercontent.com/heisiyyds999/clash-conf/refs/heads/master/proxys/vu.yaml",
    "timezone": "",
    "longitude": "",
    "latitude": ""
  },
  {
    "name": "美属维尔京群岛",
    "code": "wf",
    "url": "https://raw.githubusercontent.com/heisiyyds999/clash-conf/refs/heads/master/proxys/wf.yaml",
    "timezone": "",
    "longitude": "",
    "latitude": ""
  },
  {
    "name": "科索沃",
    "code": "xk",
    "url": "https://raw.githubusercontent.com/heisiyyds999/clash-conf/refs/heads/master/proxys/xk.yaml",
    "timezone": "Europe/Belgrade",
    "longitude": 21.166668,
    "latitude": 42.672595
  },
  {
    "name": "也门",
    "code": "ye",
    "url": "https://raw.githubusercontent.com/heisiyyds999/clash-conf/refs/heads/master/proxys/ye.yaml",
    "timezone": "Asia/Aden",
    "longitude": 44.02091,
    "latitude": 13.57952
  },
  {
    "name": "马约特",
    "code": "yt",
    "url": "https://raw.githubusercontent.com/heisiyyds999/clash-conf/refs/heads/master/proxys/yt.yaml",
    "timezone": "Indian/Mayotte",
    "longitude": 45.22878,
    "latitude": -12.78234
  },
  {
    "name": "南非",
    "code": "za",
    "url": "https://raw.githubusercontent.com/heisiyyds999/clash-conf/refs/heads/master/proxys/za.yaml",
    "timezone": "Africa/Johannesburg",
    "longitude": 22.46099,
    "latitude": -33.962687
  },
  {
    "name": "赞比亚共和国",
    "code": "zm",
    "url": "https://raw.githubusercontent.com/heisiyyds999/clash-conf/refs/heads/master/proxys/zm.yaml",
    "timezone": "Africa/Lusaka",
    "longitude": 28.287106,
    "latitude": -15.406477
  },
  {
    "name": "津巴布韦",
    "code": "zw",
    "url": "https://raw.githubusercontent.com/heisiyyds999/clash-conf/refs/heads/master/proxys/zw.yaml",
    "timezone": "Africa/Harare",
    "longitude": 31.07555,
    "latitude": -18.01274
  }
]